{
  "version": 0.6,
  "generator": "Overpass API 0.7.62.11 87bfad18",
  "osm3s": {
    "timestamp_osm_base": "2026-04-15T14:00:00Z",
    "copyright": "The data included in this document is from www.openstreetmap.org. The data is made available under ODbL."
  },
  "elements": [

{
  "type": "node",
  "id": 836813218,
  "lat": 10.9647816,
  "lon": -74.8333265,
  "tags": {
    "amenity": "hospital",
    "name": "Hogar San Camilo"
  }
},
{
  "type": "node",
  "id": 836848318,
  "lat": 10.9655895,
  "lon": -74.8323748,
  "tags": {
    "amenity": "hospital",
    "name": "Centro San Camilo"
  }
},
{
  "type": "node",
  "id": 890588447,
  "lat": 9.9597958,
  "lon": -71.1173839,
  "tags": {
    "amenity": "clinic",
    "name": "Centro Médico FERREBUS"
  }
},
{
  "type": "node",
  "id": 1036708053,
  "lat": 11.5362029,
  "lon": -72.9043858,
  "tags": {
    "addr:city": "Riohacha, La Guajira",
    "addr:housenumber": "carrera 7H calle 24",
    "addr:street": "Carrera 7H",
    "amenity": "hospital",
    "healthcare": "hospital",
    "healthcare:speciality": "general",
    "name": "Farmaplus"
  }
},
{
  "type": "node",
  "id": 1176439014,
  "lat": 9.0005426,
  "lon": -71.9061477,
  "tags": {
    "amenity": "hospital",
    "healthcare": "hospital",
    "name": "Hospital General Santa Barbara"
  }
},
{
  "type": "node",
  "id": 1176439073,
  "lat": 9.0020104,
  "lon": -71.9091115,
  "tags": {
    "amenity": "hospital",
    "name": "Ipasme Nacional"
  }
},
{
  "type": "node",
  "id": 1176503929,
  "lat": 9.0357680,
  "lon": -71.0143390,
  "tags": {
    "amenity": "hospital",
    "name": "Ambulatorio Torondoy",
    "note": "4/4/2010 4:34:47 PM"
  }
},
{
  "type": "node",
  "id": 1182868504,
  "lat": 12.1747502,
  "lon": -71.2819916,
  "tags": {
    "amenity": "hospital"
  }
},
{
  "type": "node",
  "id": 1385471948,
  "lat": 10.4467375,
  "lon": -74.9580543,
  "tags": {
    "addr:city": "Manatí",
    "addr:country": "CO",
    "addr:full": "CL 5A # 6-52",
    "addr:housenumber": "6-52",
    "addr:postcode": "085020",
    "addr:street": "Calle 5A",
    "amenity": "hospital",
    "name": "Miguel Angel Rangel E.S.E."
  }
},
{
  "type": "node",
  "id": 1404126470,
  "lat": 10.6673340,
  "lon": -71.6098038,
  "tags": {
    "amenity": "clinic",
    "emergency": "yes",
    "name": "Centro Médico de Occidente"
  }
},
{
  "type": "node",
  "id": 1422497445,
  "lat": 10.4461208,
  "lon": -74.9589788,
  "tags": {
    "addr:housenumber": "5D-07",
    "amenity": "hospital",
    "name": "Colsalud EPS"
  }
},
{
  "type": "node",
  "id": 1422539757,
  "lat": 10.3974475,
  "lon": -75.5563754,
  "tags": {
    "amenity": "hospital",
    "healthcare": "hospital",
    "name": "Medihelp"
  }
},
{
  "type": "node",
  "id": 1715611138,
  "lat": 10.6420732,
  "lon": -71.6743712,
  "tags": {
    "addr:city": "Maracaibo",
    "addr:postcode": "4001",
    "addr:street": "Avenida 67",
    "amenity": "clinic",
    "healthcare": "clinic",
    "healthcare:speciality": "general;gynaecology;dentist;paediatrics;internal;orthopaedics;biology;orthodontics;dermatology;urology;cardiology;surgery;covid19",
    "name": "Centro Clínico San Miguel"
  }
},
{
  "type": "node",
  "id": 1809017539,
  "lat": 10.4751384,
  "lon": -75.4953297,
  "tags": {
    "amenity": "clinic",
    "name": "Centro de Salud La Boquilla",
    "source": "local"
  }
},
{
  "type": "node",
  "id": 2059920870,
  "lat": 10.0276365,
  "lon": -74.6109112,
  "tags": {
    "amenity": "hospital",
    "fixme": "location"
  }
},
{
  "type": "node",
  "id": 2070878877,
  "lat": 9.3061578,
  "lon": -75.3876738,
  "tags": {
    "amenity": "hospital",
    "healthcare": "hospital"
  }
},
{
  "type": "node",
  "id": 2086184129,
  "lat": 11.0148019,
  "lon": -74.2457270,
  "tags": {
    "amenity": "hospital",
    "emergency": "yes",
    "name": "Hospital San Cristobal Cienaga"
  }
},
{
  "type": "node",
  "id": 2086184851,
  "lat": 11.0067647,
  "lon": -74.2455421,
  "tags": {
    "amenity": "hospital",
    "emergency": "yes",
    "name": "Clínica General del Norte"
  }
},
{
  "type": "node",
  "id": 2133840612,
  "lat": 9.2415924,
  "lon": -74.4257217,
  "tags": {
    "amenity": "hospital",
    "emergency": "yes",
    "name": "Urgencias San Juan de Dios"
  }
},
{
  "type": "node",
  "id": 2364634614,
  "lat": 9.0751753,
  "lon": -75.8278241,
  "tags": {
    "amenity": "hospital",
    "healthcare": "hospital",
    "name": "Centro de Salud Mata de Caña"
  }
},
{
  "type": "node",
  "id": 2423874186,
  "lat": 9.2975940,
  "lon": -75.3793123,
  "tags": {
    "amenity": "hospital",
    "name": "Cruz Roja Colombiana Sede Sincelejo"
  }
},
{
  "type": "node",
  "id": 2617655330,
  "lat": 10.7065687,
  "lon": -71.6380811,
  "tags": {
    "amenity": "hospital"
  }
},
{
  "type": "node",
  "id": 2646567496,
  "lat": 9.4705339,
  "lon": -75.2929235,
  "tags": {
    "amenity": "hospital",
    "healthcare": "hospital",
    "layer": "1",
    "name": "Puesto de Salud"
  }
},
{
  "type": "node",
  "id": 2862518701,
  "lat": 10.4135972,
  "lon": -75.5415093,
  "tags": {
    "addr:city": "Cartagena",
    "addr:housenumber": "19-55",
    "addr:street": "Carrera 18",
    "amenity": "clinic",
    "building": "yes",
    "healthcare": "clinic",
    "name": "Vida Bella Medicina Estética y Ortomolecular",
    "phone": "+57 3168339260"
  }
},
{
  "type": "node",
  "id": 2898246153,
  "lat": 10.4091282,
  "lon": -75.5180375,
  "tags": {
    "amenity": "hospital",
    "designation": "hospital",
    "emergency": "yes",
    "healthcare": "hospital",
    "name": "Gestion Salud Ips",
    "website": "http://gestionsaludips.com"
  }
},
{
  "type": "node",
  "id": 3016872233,
  "lat": 9.2800636,
  "lon": -75.4057814,
  "tags": {
    "amenity": "hospital",
    "name": "Puesto de Salud Argelia"
  }
},
{
  "type": "node",
  "id": 3018805290,
  "lat": 9.2979422,
  "lon": -75.3975170,
  "tags": {
    "amenity": "clinic",
    "healthcare": "clinic",
    "name": "Clínica La Medalla Milagrosa"
  }
},
{
  "type": "node",
  "id": 3025275459,
  "lat": 9.3043720,
  "lon": -75.3919452,
  "tags": {
    "amenity": "clinic",
    "healthcare": "clinic",
    "name": "Clínica Integral de Sincelejo"
  }
},
{
  "type": "node",
  "id": 3026186040,
  "lat": 9.2922023,
  "lon": -75.3981338,
  "tags": {
    "amenity": "clinic",
    "name": "CLÍNICA SANTA ISABEL"
  }
},
{
  "type": "node",
  "id": 3026238657,
  "lat": 9.3063969,
  "lon": -75.3955297,
  "tags": {
    "amenity": "clinic",
    "healthcare": "clinic",
    "name": "IPS Salud Social"
  }
},
{
  "type": "node",
  "id": 3026247024,
  "lat": 9.3071401,
  "lon": -75.3950113,
  "tags": {
    "amenity": "clinic",
    "healthcare": "clinic",
    "name": "Clínica Pediátrica Niño Jesús"
  }
},
{
  "type": "node",
  "id": 3026542129,
  "lat": 9.2968798,
  "lon": -75.3974078,
  "tags": {
    "amenity": "clinic",
    "name": "Clínica General de Sucre"
  }
},
{
  "type": "node",
  "id": 3026542130,
  "lat": 9.2970656,
  "lon": -75.3972312,
  "tags": {
    "amenity": "clinic",
    "name": "Clínica"
  }
},
{
  "type": "node",
  "id": 3026582344,
  "lat": 9.3056111,
  "lon": -75.3959711,
  "tags": {
    "amenity": "clinic",
    "healthcare": "clinic",
    "name": "COOMEVA"
  }
},
{
  "type": "node",
  "id": 3056707570,
  "lat": 9.3074874,
  "lon": -75.3943937,
  "tags": {
    "amenity": "clinic",
    "healthcare": "clinic",
    "name": "Clínica Oftalmológica de Sucre"
  }
},
{
  "type": "node",
  "id": 3063396646,
  "lat": 9.3044574,
  "lon": -75.4111845,
  "tags": {
    "amenity": "hospital",
    "name": "Ips Vallejo"
  }
},
{
  "type": "node",
  "id": 3078326584,
  "lat": 10.4920793,
  "lon": -75.4743941,
  "tags": {
    "amenity": "clinic",
    "name": "UBA - Tierra Baja",
    "source": "Bing"
  }
},
{
  "type": "node",
  "id": 3100445661,
  "lat": 9.6601641,
  "lon": -73.7479052,
  "tags": {
    "amenity": "hospital",
    "emergency": "yes",
    "healthcare": "hospital",
    "name": "Hospital Hernando Quintero Blanco"
  }
},
{
  "type": "node",
  "id": 3179297063,
  "lat": 11.1102389,
  "lon": -74.0968257,
  "tags": {
    "amenity": "hospital",
    "name": "Puesto de Salud El Campano"
  }
},
{
  "type": "node",
  "id": 3215170043,
  "lat": 10.5492442,
  "lon": -71.6210958,
  "tags": {
    "amenity": "clinic",
    "name": "Policlínica San Francisco"
  }
},
{
  "type": "node",
  "id": 3438524538,
  "lat": 10.5821412,
  "lon": -71.6432610,
  "tags": {
    "amenity": "hospital",
    "name": "Medisur"
  }
},
{
  "type": "node",
  "id": 3451399484,
  "lat": 11.0144969,
  "lon": -74.2537740,
  "tags": {
    "amenity": "hospital",
    "name": "Centro de salud Miramar",
    "operator": "Hospital San Cristobal Cienaga"
  }
},
{
  "type": "node",
  "id": 3836494906,
  "lat": 11.0003308,
  "lon": -74.8143311,
  "tags": {
    "amenity": "hospital",
    "name": "Salud Total Eps S.a Uubc Reina Catalina"
  }
},
{
  "type": "node",
  "id": 3923408755,
  "lat": 10.6262390,
  "lon": -71.6264631,
  "tags": {
    "amenity": "hospital",
    "name": "Ambulatorio Urbano II Corito II"
  }
},
{
  "type": "node",
  "id": 3923422612,
  "lat": 10.6233258,
  "lon": -71.6266788,
  "tags": {
    "amenity": "hospital",
    "name": "Módulo Corito"
  }
},
{
  "type": "node",
  "id": 4008213762,
  "lat": 11.5425862,
  "lon": -72.9085784,
  "tags": {
    "addr:city": "Riohcha",
    "addr:street": "Calle 15 N° 8-69",
    "amenity": "hospital",
    "healthcare": "hospital",
    "healthcare:speciality": "general;stomatology",
    "name": "Cruz Roja"
  }
},
{
  "type": "node",
  "id": 4011577784,
  "lat": 10.6534435,
  "lon": -72.9265343,
  "tags": {
    "amenity": "hospital",
    "name": "Cruz Roja Colombiana",
    "operator": "Cruz Roja"
  }
},
{
  "type": "node",
  "id": 4022320101,
  "lat": 10.3227374,
  "lon": -75.4101691,
  "tags": {
    "amenity": "hospital",
    "name": "Centro de Diagnostico Salud Social IPS"
  }
},
{
  "type": "node",
  "id": 4022342909,
  "lat": 10.3200669,
  "lon": -75.4093752,
  "tags": {
    "amenity": "hospital",
    "name": "Centro de Salud de Pumarejo"
  }
},
{
  "type": "node",
  "id": 4079514175,
  "lat": 9.7946078,
  "lon": -74.7881067,
  "tags": {
    "amenity": "hospital",
    "healthcare:speciality": "general",
    "name": "E.S.E Hospital Regional Fray Luis de León",
    "source": "bing / mapbox"
  }
},
{
  "type": "node",
  "id": 4081317295,
  "lat": 10.8971747,
  "lon": -74.8865910,
  "tags": {
    "amenity": "hospital",
    "name": "Ese Hospital Galapa"
  }
},
{
  "type": "node",
  "id": 4229295489,
  "lat": 10.5388373,
  "lon": -71.6247386,
  "tags": {
    "amenity": "clinic",
    "name": "Clínica PDVSA lago medio"
  }
},
{
  "type": "node",
  "id": 4261594919,
  "lat": 11.3711319,
  "lon": -72.2525713,
  "tags": {
    "amenity": "hospital"
  }
},
{
  "type": "node",
  "id": 4268316025,
  "lat": 11.5405727,
  "lon": -72.8958010,
  "tags": {
    "addr:city": "urbanizacion villa confamiliar",
    "addr:street": "Vía Riohacha - Maicao",
    "amenity": "hospital",
    "emergency": "yes",
    "healthcare": "hospital",
    "healthcare:speciality": "general;chiropractic;internal;dentist;urology;dermatology;cardiology;neurology",
    "name": "fundacion manos que construyen paz"
  }
},
{
  "type": "node",
  "id": 4393602280,
  "lat": 11.7781591,
  "lon": -72.4444783,
  "tags": {
    "amenity": "hospital"
  }
},
{
  "type": "node",
  "id": 4393784622,
  "lat": 11.7785290,
  "lon": -72.4448174,
  "tags": {
    "amenity": "hospital",
    "name": "consulta externa"
  }
},
{
  "type": "node",
  "id": 4393784623,
  "lat": 11.7784099,
  "lon": -72.4448154,
  "tags": {
    "addr:city": "Manaure",
    "addr:housenumber": "6",
    "addr:street": "Calle 1A",
    "amenity": "hospital",
    "emergency": "yes",
    "healthcare": "hospital",
    "healthcare:speciality": "general",
    "name": "Hospital Armado Pabon Lopez"
  }
},
{
  "type": "node",
  "id": 4416871390,
  "lat": 10.6450156,
  "lon": -71.6628413,
  "tags": {
    "addr:postcode": "4001",
    "addr:street": "Avenida Circunvalación 2",
    "amenity": "hospital",
    "email": "acmadrerafols@gmail.com",
    "internet_access": "wlan",
    "name": "Hospital Madre Rafols",
    "opening_hours": "Mo-Sa 08:00-17:00",
    "phone": "+582617870480",
    "website": "https://ssmadrerafols.com/"
  }
},
{
  "type": "node",
  "id": 4425024198,
  "lat": 11.2686598,
  "lon": -74.1881017,
  "tags": {
    "addr:housenumber": "3-158",
    "addr:street": "Calle 14",
    "amenity": "clinic"
  }
},
{
  "type": "node",
  "id": 4439948489,
  "lat": 10.6673525,
  "lon": -71.6074775,
  "tags": {
    "addr:housenumber": "3Y",
    "addr:street": "Calle 76",
    "amenity": "clinic",
    "name": "Policlínica Amado"
  }
},
{
  "type": "node",
  "id": 4453745674,
  "lat": 10.4248987,
  "lon": -75.5531751,
  "tags": {
    "amenity": "clinic",
    "healthcare": "clinic",
    "name": "Liga Colombiana Contra el Cancer",
    "source": "survey"
  }
},
{
  "type": "node",
  "id": 4458240454,
  "lat": 10.6175556,
  "lon": -71.6450558,
  "tags": {
    "amenity": "hospital",
    "healthcare": "doctor",
    "name": "Ambulatorio La Misión"
  }
},
{
  "type": "node",
  "id": 4458240462,
  "lat": 10.6111332,
  "lon": -71.6341806,
  "tags": {
    "amenity": "hospital",
    "name": "Ambulatorio Los Pinos"
  }
},
{
  "type": "node",
  "id": 4568899758,
  "lat": 9.1836861,
  "lon": -75.3783233,
  "tags": {
    "amenity": "clinic",
    "healthcare": "clinic",
    "name": "Ips Salud Integral"
  }
},
{
  "type": "node",
  "id": 4573090234,
  "lat": 10.6654028,
  "lon": -71.6276875,
  "tags": {
    "amenity": "clinic",
    "healthcare": "clinic",
    "name": "Venezolana de salud integral",
    "name:es": "Venezolana de salud integral"
  }
},
{
  "type": "node",
  "id": 4714336590,
  "lat": 11.5427994,
  "lon": -72.9114491,
  "tags": {
    "addr:city": "Riohacha, La Guajira",
    "addr:street": "calle 14b# 12-2 a 11-106",
    "amenity": "clinic",
    "name": "CLÍNICA RENACER",
    "phone": "+57 3204246799"
  }
},
{
  "type": "node",
  "id": 4739387825,
  "lat": 10.2007284,
  "lon": -71.3146753,
  "tags": {
    "addr:street": "Calle Bermudez",
    "amenity": "clinic",
    "name": "Policlínica San Antonio",
    "name:en": "Policlínica San Antonio",
    "name:es": "Policlínica San Antonio",
    "opening_hours": "24/7"
  }
},
{
  "type": "node",
  "id": 4745548821,
  "lat": 10.6671468,
  "lon": -71.6190372,
  "tags": {
    "addr:city": "Maracaibo",
    "addr:street": "Calle 74",
    "amenity": "clinic",
    "healthcare": "clinic",
    "healthcare:speciality": "dialysis",
    "name": "Centro de Diálisis de Occidente",
    "name:es": "Centro de Diálisis de Occidente",
    "short_name": "CDO"
  }
},
{
  "type": "node",
  "id": 4806720227,
  "lat": 10.6815684,
  "lon": -71.6678202,
  "tags": {
    "amenity": "clinic",
    "name": "Centro Médico La Limpia",
    "name:en": "Centro Médico La Limpia",
    "name:es": "Centro Médico La Limpia"
  }
},
{
  "type": "node",
  "id": 4908316226,
  "lat": 11.5437437,
  "lon": -72.9153994,
  "tags": {
    "amenity": "clinic",
    "healthcare": "clinic"
  }
},
{
  "type": "node",
  "id": 4908316227,
  "lat": 11.5428533,
  "lon": -72.9164019,
  "tags": {
    "addr:city": "Riohacha-Guajira",
    "addr:housenumber": "15-35",
    "addr:street": "Calle 14",
    "amenity": "clinic",
    "name": "Oficina de Atención al Usuario Medimás EPS",
    "name:es": "Cafesalud"
  }
},
{
  "type": "node",
  "id": 4910861352,
  "lat": 10.7219868,
  "lon": -71.6908173,
  "tags": {
    "amenity": "hospital",
    "name": "Ambulatorio CAPI"
  }
},
{
  "type": "node",
  "id": 4910861353,
  "lat": 10.6922989,
  "lon": -71.6960593,
  "tags": {
    "amenity": "hospital",
    "name": "Hospital Materno Infantil de El Marite",
    "official_name": "Hospital Materno Infantil Raúl Leoni"
  }
},
{
  "type": "node",
  "id": 4911671222,
  "lat": 10.5591868,
  "lon": -73.0110205,
  "tags": {
    "amenity": "hospital",
    "name": "Hospital Santa Cruz de Urumita",
    "name:es": "Hospital Santa Cruz de Urumita",
    "opening_hours": "24/7"
  }
},
{
  "type": "node",
  "id": 5045239732,
  "lat": 11.2327018,
  "lon": -74.1951594,
  "tags": {
    "addr:housenumber": "28C-05",
    "addr:street": "Carrera 19",
    "amenity": "hospital",
    "healthcare": "hospital",
    "name": "Clínica Bahía",
    "name:es": "Clínica Bahía"
  }
},
{
  "type": "node",
  "id": 5055012723,
  "lat": 10.4719945,
  "lon": -73.2557594,
  "tags": {
    "amenity": "clinic",
    "healthcare": "clinic",
    "name": "CLÍNICA MÉDICOS ALTA COMPLEJIDAD DEL CARIBE",
    "name:es": "CLÍNICA MÉDICOS ALTA COMPLEJIDAD DEL CARIBE"
  }
},
{
  "type": "node",
  "id": 5082700918,
  "lat": 11.5453295,
  "lon": -72.9088217,
  "tags": {
    "amenity": "hospital"
  }
},
{
  "type": "node",
  "id": 5082707872,
  "lat": 11.2935958,
  "lon": -73.2638313,
  "tags": {
    "amenity": "hospital",
    "name": "Hospital santa teresa de jesus"
  }
},
{
  "type": "node",
  "id": 5082716175,
  "lat": 11.3772858,
  "lon": -72.2479433,
  "tags": {
    "amenity": "hospital",
    "name": "Antiguo hospital San José"
  }
},
{
  "type": "node",
  "id": 5203331702,
  "lat": 11.5491574,
  "lon": -72.9138533,
  "tags": {
    "addr:city": "Riohacha",
    "addr:housenumber": "10-16",
    "addr:street": "Calle 7",
    "amenity": "hospital",
    "ele": "0",
    "emergency": "no",
    "healthcare": "hospital",
    "healthcare:speciality": "orthodontics",
    "name": "Inversiones Dentales de Riohacha S.a",
    "phone": "+57 5 7280593"
  }
},
{
  "type": "node",
  "id": 5203337552,
  "lat": 11.5459289,
  "lon": -72.9153184,
  "tags": {
    "addr:city": "Riohacha",
    "addr:housenumber": "carr 15",
    "addr:street": "Calle 12",
    "amenity": "hospital",
    "healthcare": "hospital",
    "healthcare:speciality": "general",
    "name": "FUNDACIÓN RENAL DE COLOMBIA"
  }
},
{
  "type": "node",
  "id": 5207616839,
  "lat": 11.5477308,
  "lon": -72.9066878,
  "tags": {
    "addr:housenumber": "8-31",
    "addr:street": "Calle 11",
    "amenity": "hospital",
    "healthcare": "hospital",
    "name": "ANASU AINWA IPS-I"
  }
},
{
  "type": "node",
  "id": 5207630477,
  "lat": 11.5470738,
  "lon": -72.9124009,
  "tags": {
    "addr:city": "Riohacha, La Guajira",
    "addr:housenumber": "carrera 13 N 15 51",
    "addr:street": "Calle 11A",
    "amenity": "hospital",
    "healthcare": "hospital",
    "healthcare:speciality": "general",
    "name": "Sociedad Medica Clinica Riohacha Sas",
    "phone": "+57 7283399"
  }
},
{
  "type": "node",
  "id": 5207632947,
  "lat": 11.5500786,
  "lon": -72.9057186,
  "tags": {
    "addr:housenumber": "3-28",
    "addr:street": "Calle 7",
    "amenity": "hospital",
    "healthcare": "hospital",
    "name": "City Optica Riohacha Sas"
  }
},
{
  "type": "node",
  "id": 5323144800,
  "lat": 11.1000311,
  "lon": -73.8788389,
  "tags": {
    "amenity": "clinic"
  }
},
{
  "type": "node",
  "id": 5393874661,
  "lat": 10.3979242,
  "lon": -75.5556487,
  "tags": {
    "addr:street": "Carrera 6",
    "amenity": "clinic",
    "healthcare": "clinic",
    "name": "Prisma Centro Medico",
    "source": "Kaart Ground Survey 2018"
  }
},
{
  "type": "node",
  "id": 5414876714,
  "lat": 10.7916452,
  "lon": -71.6805902,
  "tags": {
    "amenity": "hospital",
    "name": "Módulo"
  }
},
{
  "type": "node",
  "id": 5459409321,
  "lat": 10.4733773,
  "lon": -73.2544054,
  "tags": {
    "addr:street": "Carrera 16",
    "amenity": "clinic",
    "healthcare": "clinic",
    "name": "IDIME Instituto de Diagnóstico Medico"
  }
},
{
  "type": "node",
  "id": 5705926484,
  "lat": 11.5470423,
  "lon": -72.9095226,
  "tags": {
    "addr:city": "Riohacha, La Guajira",
    "addr:street": "Calle 11A",
    "amenity": "hospital",
    "emergency": "yes",
    "healthcare": "hospital",
    "healthcare:speciality": "general",
    "name": "Salud Total"
  }
},
{
  "type": "node",
  "id": 5705926487,
  "lat": 11.5471047,
  "lon": -72.9110515,
  "tags": {
    "addr:housenumber": "10-123",
    "addr:street": "Calle 11A",
    "amenity": "hospital",
    "emergency": "yes",
    "healthcare": "hospital",
    "healthcare:speciality": "general",
    "name": "I.P.S. Asociacion de Cabildos y/o Autoridades tradicionales de la Guajira"
  }
},
{
  "type": "node",
  "id": 5705926490,
  "lat": 11.5467510,
  "lon": -72.9104428,
  "tags": {
    "addr:city": "Riohacha, La Guajira",
    "addr:housenumber": "10-08",
    "addr:street": "Calle 12",
    "amenity": "hospital",
    "emergency": "yes",
    "healthcare": "hospital",
    "healthcare:speciality": "general",
    "name": "I.P.S. Palaima"
  }
},
{
  "type": "node",
  "id": 5705926498,
  "lat": 11.5465187,
  "lon": -72.9111329,
  "tags": {
    "addr:city": "Riohacha, La Guajira",
    "addr:housenumber": "10-138",
    "addr:street": "Calle 12",
    "amenity": "hospital",
    "emergency": "yes",
    "healthcare": "hospital",
    "healthcare:speciality": "general",
    "name": "Lab de Colombia I.P.S.",
    "phone": "+57 7288223"
  }
},
{
  "type": "node",
  "id": 5705927122,
  "lat": 11.5459327,
  "lon": -72.9093846,
  "tags": {
    "amenity": "hospital",
    "healthcare": "hospital",
    "name": "I.p.s. Servicio de Salud Especializada"
  }
},
{
  "type": "node",
  "id": 5705927123,
  "lat": 11.5459119,
  "lon": -72.9094731,
  "tags": {
    "amenity": "hospital",
    "healthcare": "hospital",
    "name": "E.p.s.i. Pusakawi"
  }
},
{
  "type": "node",
  "id": 5762630153,
  "lat": 10.3825694,
  "lon": -75.4587514,
  "tags": {
    "amenity": "clinic",
    "healthcare": "clinic",
    "name": "CASA Doña arsenia"
  }
},
{
  "type": "node",
  "id": 5794579083,
  "lat": 10.4140891,
  "lon": -75.5377704,
  "tags": {
    "amenity": "clinic",
    "healthcare": "clinic",
    "name": "Cedimagen"
  }
},
{
  "type": "node",
  "id": 5794579143,
  "lat": 10.4106788,
  "lon": -75.5325032,
  "tags": {
    "amenity": "clinic",
    "healthcare": "clinic",
    "name": "Laboratorio Clínico Syso"
  }
},
{
  "type": "node",
  "id": 5809571647,
  "lat": 10.4159747,
  "lon": -75.5401837,
  "tags": {
    "amenity": "clinic",
    "email": "gastrocaribesas@gmail.com",
    "healthcare": "clinic",
    "name": "GastroCaribe",
    "phone": "+57 5 6431665",
    "phone1": "+57 3164561517",
    "website": "https://www.gastrocaribesas.com.co/"
  }
},
{
  "type": "node",
  "id": 6023318359,
  "lat": 10.7909428,
  "lon": -74.7538630,
  "tags": {
    "amenity": "hospital",
    "healthcare": "hospital"
  }
},
{
  "type": "node",
  "id": 6058437720,
  "lat": 11.2849302,
  "lon": -74.0023345,
  "tags": {
    "amenity": "clinic",
    "name": "Puesto de Salud Calabazo"
  }
},
{
  "type": "node",
  "id": 6108022985,
  "lat": 11.7168186,
  "lon": -72.2648434,
  "tags": {
    "amenity": "clinic",
    "name": "I P S I Asocabildos",
    "name:en": "45 cm"
  }
},
{
  "type": "node",
  "id": 6110198986,
  "lat": 12.1748799,
  "lon": -71.2819310,
  "tags": {
    "amenity": "hospital",
    "name": "Hospital de Nazareth EPS"
  }
},
{
  "type": "node",
  "id": 6114258888,
  "lat": 11.2411234,
  "lon": -74.1849265,
  "tags": {
    "amenity": "clinic",
    "healthcare": "clinic"
  }
},
{
  "type": "node",
  "id": 6114258897,
  "lat": 11.2407685,
  "lon": -74.1817159,
  "tags": {
    "addr:housenumber": "27-07",
    "addr:street": "Avenida del Libertador",
    "amenity": "clinic",
    "healthcare": "clinic",
    "healthcare:speciality": "radiology",
    "name": "Imagenología del Magdalena"
  }
},
{
  "type": "node",
  "id": 6119607179,
  "lat": 9.5453580,
  "lon": -75.3134187,
  "tags": {
    "amenity": "clinic",
    "healthcare": "clinic",
    "name": "Mutual Ser"
  }
},
{
  "type": "node",
  "id": 6119623582,
  "lat": 9.5444069,
  "lon": -75.3137639,
  "tags": {
    "amenity": "clinic",
    "healthcare": "clinic",
    "name": "Entidad de Salud"
  }
},
{
  "type": "node",
  "id": 6135817808,
  "lat": 11.5518874,
  "lon": -72.9082987,
  "tags": {
    "addr:city": "Riohacha, La Guajira",
    "addr:housenumber": "6-53",
    "addr:street": "Calle 3",
    "amenity": "clinic",
    "healthcare": "clinic",
    "healthcare:speciality": "general",
    "name": "colsanitas eps",
    "opening_hours": "Mo-Fr 07:00-17:00"
  }
},
{
  "type": "node",
  "id": 6135817894,
  "lat": 11.5512917,
  "lon": -72.9092835,
  "tags": {
    "addr:city": "Riohacha",
    "addr:housenumber": "3-27",
    "addr:street": "Carrera 8",
    "amenity": "clinic",
    "healthcare": "clinic",
    "name": "coomeva"
  }
},
{
  "type": "node",
  "id": 6136049809,
  "lat": 11.5497639,
  "lon": -72.9084597,
  "tags": {
    "amenity": "clinic",
    "healthcare": "clinic"
  }
},
{
  "type": "node",
  "id": 6235613585,
  "lat": 10.7007586,
  "lon": -71.6783791,
  "tags": {
    "amenity": "hospital",
    "name": "Módulo Guaicaipuro"
  }
},
{
  "type": "node",
  "id": 6392201944,
  "lat": 10.4189582,
  "lon": -75.5459490,
  "tags": {
    "amenity": "clinic",
    "healthcare": "clinic",
    "name:en": "Yellow Fever Vaccines"
  }
},
{
  "type": "node",
  "id": 6456494546,
  "lat": 10.4693337,
  "lon": -73.2545186,
  "tags": {
    "amenity": "hospital",
    "healthcare": "hospital",
    "name": "rosario pumarejo lopez"
  }
},
{
  "type": "node",
  "id": 6751697205,
  "lat": 9.3946973,
  "lon": -75.0652201,
  "tags": {
    "addr:city": "San Pedro",
    "addr:country": "CO",
    "addr:street": "Carrera 12",
    "amenity": "hospital",
    "emergency": "yes",
    "healthcare": "hospital",
    "healthcare:speciality": "general",
    "name": "Centro de Salud",
    "operator": "Centro de Salud",
    "operator:type": "public"
  }
},
{
  "type": "node",
  "id": 6913319585,
  "lat": 10.6560564,
  "lon": -71.6366257,
  "tags": {
    "amenity": "clinic",
    "name": "Centro Médico Madre Emilia"
  }
},
{
  "type": "node",
  "id": 6936409001,
  "lat": 10.5627654,
  "lon": -71.6584995,
  "tags": {
    "amenity": "hospital",
    "name": "Ambulatorio Médico El Silencio"
  }
},
{
  "type": "node",
  "id": 6948095285,
  "lat": 10.5513533,
  "lon": -71.6581242,
  "tags": {
    "amenity": "hospital",
    "name": "CDI Urbanización La Modelo"
  }
},
{
  "type": "node",
  "id": 6955300385,
  "lat": 10.5575415,
  "lon": -71.6371742,
  "tags": {
    "amenity": "hospital",
    "name": "Oncológico"
  }
},
{
  "type": "node",
  "id": 6955955486,
  "lat": 9.1922213,
  "lon": -72.6670508,
  "tags": {
    "amenity": "hospital",
    "name": "Ambulatorio Rural"
  }
},
{
  "type": "node",
  "id": 6966668385,
  "lat": 10.5624117,
  "lon": -71.6554112,
  "tags": {
    "amenity": "clinic",
    "name": "Doctor Galue"
  }
},
{
  "type": "node",
  "id": 6988400438,
  "lat": 11.0018316,
  "lon": -74.8150243,
  "tags": {
    "addr:housenumber": "80",
    "addr:street": "Calle 49c",
    "amenity": "clinic",
    "name": "Urgencias SURA",
    "opening_hours": "24/7",
    "phone": "+57 5 3669710",
    "website": "https://www.epssura.com/"
  }
},
{
  "type": "node",
  "id": 7010231485,
  "lat": 11.0018320,
  "lon": -74.8150253,
  "tags": {
    "addr:housenumber": "80",
    "addr:street": "Carrera 49 C",
    "amenity": "clinic",
    "name": "Urgencia SURA",
    "opening_hours": "24/7",
    "phone": "+57 5 3669710",
    "website": "https://www.epssura.com/"
  }
},
{
  "type": "node",
  "id": 7070056585,
  "lat": 10.6633159,
  "lon": -71.6404114,
  "tags": {
    "amenity": "clinic",
    "name": "Clínica Sucre"
  }
},
{
  "type": "node",
  "id": 7175299385,
  "lat": 10.6658859,
  "lon": -71.6320117,
  "tags": {
    "amenity": "clinic",
    "healthcare": "clinic",
    "name": "Famedical Services"
  }
},
{
  "type": "node",
  "id": 7249982151,
  "lat": 9.9666168,
  "lon": -71.1290177,
  "tags": {
    "addr:city": "Bachaquero",
    "addr:postcode": "4014",
    "amenity": "hospital",
    "emergency": "yes",
    "healthcare": "hospital",
    "healthcare:speciality": "general",
    "name": "Clinica PDVSA",
    "operator": "PDVSA",
    "operator:type": "public"
  }
},
{
  "type": "node",
  "id": 7294573264,
  "lat": 10.9493320,
  "lon": -72.8008266,
  "tags": {
    "amenity": "clinic",
    "healthcare": "clinic",
    "name": "Cuidamos Salud",
    "operator": "Operador Monte Sion"
  }
},
{
  "type": "node",
  "id": 7294593295,
  "lat": 10.9552307,
  "lon": -72.7923011,
  "tags": {
    "amenity": "hospital",
    "healthcare": "hospital",
    "name": "Hospital Nuestra Senora del Pilar"
  }
},
{
  "type": "node",
  "id": 7334623379,
  "lat": 9.9652697,
  "lon": -71.1230944,
  "tags": {
    "amenity": "clinic",
    "name": "Centro Clínico Los Ángeles"
  }
},
{
  "type": "node",
  "id": 7359977053,
  "lat": 10.9510251,
  "lon": -72.7954121,
  "tags": {
    "amenity": "clinic",
    "healthcare": "clinic",
    "name": "Clinica de Salud Mental Cuidamos Salud"
  }
},
{
  "type": "node",
  "id": 7396167834,
  "lat": 11.5420561,
  "lon": -72.9218071,
  "tags": {
    "amenity": "hospital",
    "healthcare": "hospital"
  }
},
{
  "type": "node",
  "id": 7396338189,
  "lat": 11.5346859,
  "lon": -72.9042351,
  "tags": {
    "addr:city": "Riohacha, La Guajira",
    "addr:housenumber": "carrera 7H calle 24",
    "addr:street": "Carrera 7H",
    "amenity": "hospital",
    "healthcare": "hospital",
    "healthcare:speciality": "general",
    "name": "Farmaplus",
    "operator": "desconocidos"
  }
},
{
  "type": "node",
  "id": 7399590854,
  "lat": 11.5465559,
  "lon": -72.9191472,
  "tags": {
    "amenity": "hospital",
    "healthcare": "hospital",
    "name": "Ips Mulamana"
  }
},
{
  "type": "node",
  "id": 7399597131,
  "lat": 11.5429285,
  "lon": -72.9154308,
  "tags": {
    "addr:city": "Riohacha",
    "addr:street": "#- a 12b-79, Cl. 14 #121",
    "amenity": "hospital",
    "healthcare": "hospital",
    "horario": "De lunes a viernes de",
    "name": "Nueva Eps",
    "note": "Horario: de lunes a viernes de 07:00 a 19:00\nSábado: 07:00 a 12:00",
    "phone": "+577289958"
  }
},
{
  "type": "node",
  "id": 7399597140,
  "lat": 11.5428564,
  "lon": -72.9116391,
  "tags": {
    "addr:city": "Riohacha, La Guajira",
    "addr:street": "Cl 14a 11-09",
    "amenity": "clinic",
    "healthcare": "clinic",
    "healthcare:speciality": "Endoscopia;gastroenterologia;gostroenterologia_infantil",
    "name": "Unidad medica gastrica Unimegas",
    "phone": "+57 5 7270690"
  }
},
{
  "type": "node",
  "id": 7400728707,
  "lat": 11.5473079,
  "lon": -72.9139845,
  "tags": {
    "addr:city": "Riohacha",
    "addr:housenumber": "12-96",
    "addr:street": "Calle 11A",
    "amenity": "clinic",
    "healthcare": "clinic",
    "healthcare:speciality": "general",
    "name": "anas wayuu epsi"
  }
},
{
  "type": "node",
  "id": 7400728709,
  "lat": 11.5472738,
  "lon": -72.9137189,
  "tags": {
    "addr:city": "Riohacha",
    "addr:housenumber": "Cra. 12 #44",
    "addr:street": "Calle 10",
    "amenity": "clinic",
    "healthcare": "clinic",
    "healthcare:speciality": "radiology",
    "name": "unidad medica radiologica del carmen",
    "phone": "+57 5 7274471"
  }
},
{
  "type": "node",
  "id": 7400728711,
  "lat": 11.5453847,
  "lon": -72.9152124,
  "tags": {
    "addr:city": "Riohacha",
    "addr:housenumber": "16-16",
    "addr:street": "Calle 12",
    "amenity": "clinic",
    "healthcare": "clinic",
    "name": "cidsalud",
    "opening_hours": "24/7",
    "phone": "+ 57 5 7276731"
  }
},
{
  "type": "node",
  "id": 7400755272,
  "lat": 11.5466794,
  "lon": -72.9157582,
  "tags": {
    "addr:city": "Riohacha",
    "addr:housenumber": "15-55",
    "addr:street": "Calle 11A",
    "amenity": "clinic",
    "healthcare": "clinic",
    "name": "clinica riohacha",
    "opening_hours": "24/7",
    "phone": "+57 5 7271873"
  }
},
{
  "type": "node",
  "id": 7402677814,
  "lat": 11.5466396,
  "lon": -72.9157911,
  "tags": {
    "addr:city": "Riohacha",
    "addr:housenumber": "15-55",
    "addr:street": "Calle 11A",
    "amenity": "clinic",
    "healthcare": "clinic",
    "healthcare:speciality": "general",
    "name": "Clinica Riohacha",
    "opening_hours": "24/7",
    "phone": "+57 5 7271873"
  }
},
{
  "type": "node",
  "id": 7402677817,
  "lat": 11.5454202,
  "lon": -72.9152144,
  "tags": {
    "addr:city": "Riohacha-Guajira",
    "addr:housenumber": "12-35",
    "addr:street": "Carrera 15",
    "amenity": "clinic",
    "healthcare": "clinic",
    "healthcare:speciality": "general",
    "name": "cidsalud",
    "phone": "+57 5 7276731"
  }
},
{
  "type": "node",
  "id": 7402677822,
  "lat": 11.5492183,
  "lon": -72.9145134,
  "tags": {
    "addr:city": "Riohacha",
    "addr:housenumber": "262",
    "addr:street": "Carrera 15",
    "amenity": "clinic",
    "healthcare": "clinic",
    "healthcare:speciality": "general",
    "name": "Saludvida E.p.s",
    "opening_hours": "Mo-Fr 07:30-18:30",
    "phone": "+57 5 7286944"
  }
},
{
  "type": "node",
  "id": 7402807302,
  "lat": 11.3815095,
  "lon": -72.2662454,
  "tags": {
    "amenity": "hospital",
    "healthcare": "hospital"
  }
},
{
  "type": "node",
  "id": 7402807308,
  "lat": 11.3813977,
  "lon": -72.2345132,
  "tags": {
    "amenity": "clinic",
    "healthcare": "clinic",
    "name": "clinica maicao",
    "phone": "+57 (5) 7250400"
  }
},
{
  "type": "node",
  "id": 7403726394,
  "lat": 11.5499169,
  "lon": -72.9032668,
  "tags": {
    "addr:street": "Calle 9Cra. 1c,",
    "amenity": "clinic",
    "healthcare": "clinic",
    "name": "Centro De Salud Barrio Arriba",
    "phone": "+57300 7002878"
  }
},
{
  "type": "node",
  "id": 7490618069,
  "lat": 11.5404336,
  "lon": -72.8954037,
  "tags": {
    "addr:city": "Riohacha",
    "addr:postcode": "440007",
    "addr:street": "Vía Riohacha - Maicao",
    "amenity": "hospital",
    "healthcare": "hospital",
    "healthcare:speciality": "general",
    "name": "Fundacionque conastruyen paz"
  }
},
{
  "type": "node",
  "id": 7490618070,
  "lat": 11.5410193,
  "lon": -72.8956185,
  "tags": {
    "addr:city": "Riohacha",
    "addr:postcode": "440007",
    "addr:street": "Vía Riohacha - Maicao",
    "amenity": "hospital",
    "healthcare": "hospital",
    "healthcare:speciality": "chiropractic;paediatrics;dentist;orthodontics;radiology",
    "name": "Fundacion manos que construyen paz"
  }
},
{
  "type": "node",
  "id": 7722941561,
  "lat": 9.1405181,
  "lon": -71.0874769,
  "tags": {
    "amenity": "hospital",
    "name": "Módulo de Nueva Bolivia"
  }
},
{
  "type": "node",
  "id": 7940174985,
  "lat": 10.6679673,
  "lon": -71.6137570,
  "tags": {
    "addr:postcode": "4001",
    "addr:street": "Calle 74",
    "amenity": "clinic",
    "internet_access": "wlan",
    "name": "labcenter"
  }
},
{
  "type": "node",
  "id": 8558833464,
  "lat": 10.3920035,
  "lon": -73.0267876,
  "tags": {
    "amenity": "hospital",
    "name": "Hospital José Antonio Socarrás Sánchez"
  }
},
{
  "type": "node",
  "id": 8572840917,
  "lat": 11.0053085,
  "lon": -74.8198868,
  "tags": {
    "amenity": "clinic",
    "check_date": "2026-03-06",
    "healthcare": "clinic",
    "name": "Centro Medico Colsánitas"
  }
},
{
  "type": "node",
  "id": 8637779017,
  "lat": 10.4182197,
  "lon": -75.5344045,
  "tags": {
    "amenity": "clinic",
    "healthcare": "clinic",
    "name": "Laboratorio Ficha Madica"
  }
},
{
  "type": "node",
  "id": 8856969673,
  "lat": 9.0391986,
  "lon": -75.7994586,
  "tags": {
    "amenity": "hospital",
    "healthcare": "hospital",
    "name": "E.s.e. Camu Cotorra"
  }
},
{
  "type": "node",
  "id": 8857862217,
  "lat": 10.6391222,
  "lon": -74.9353585,
  "tags": {
    "amenity": "clinic",
    "name": "clínica general del norte"
  }
},
{
  "type": "node",
  "id": 8865961221,
  "lat": 9.2927733,
  "lon": -75.3953169,
  "tags": {
    "amenity": "clinic",
    "name": "CERINPROS"
  }
},
{
  "type": "node",
  "id": 8898792317,
  "lat": 10.5902600,
  "lon": -74.1856517,
  "tags": {
    "amenity": "hospital",
    "name": "Luisa Santiaga Iguaran"
  }
},
{
  "type": "node",
  "id": 9042016428,
  "lat": 10.9817323,
  "lon": -74.7912412,
  "tags": {
    "amenity": "clinic",
    "check_date": "2025-06-28",
    "check_date:opening_hours": "2025-06-28",
    "healthcare": "clinic",
    "name": "Clínica General San Diego S.A.S.",
    "opening_hours": "Mo-Su,PH 00:00-24:00",
    "phone": "+573183493523",
    "wheelchair": "yes"
  }
},
{
  "type": "node",
  "id": 9054594235,
  "lat": 9.1067394,
  "lon": -71.3118669,
  "tags": {
    "amenity": "hospital",
    "healthcare": "hospital"
  }
},
{
  "type": "node",
  "id": 9054594247,
  "lat": 9.1200156,
  "lon": -71.2936011,
  "tags": {
    "amenity": "hospital"
  }
},
{
  "type": "node",
  "id": 9054594249,
  "lat": 9.1268336,
  "lon": -71.2800184,
  "tags": {
    "amenity": "hospital"
  }
},
{
  "type": "node",
  "id": 9054623906,
  "lat": 9.2395213,
  "lon": -71.1731377,
  "tags": {
    "amenity": "hospital"
  }
},
{
  "type": "node",
  "id": 9054705789,
  "lat": 9.2386053,
  "lon": -71.1699915,
  "tags": {
    "amenity": "hospital",
    "name": "Módulo"
  }
},
{
  "type": "node",
  "id": 9060179285,
  "lat": 10.3258150,
  "lon": -72.3156971,
  "tags": {
    "amenity": "hospital"
  }
},
{
  "type": "node",
  "id": 9062409585,
  "lat": 11.3466165,
  "lon": -71.9686630,
  "tags": {
    "amenity": "hospital",
    "healthcare": "hospital",
    "name": "Hospital II binacional paraguaipoa Dr. Jose Leonardo Fernandez"
  }
},
{
  "type": "node",
  "id": 9062797788,
  "lat": 11.1886270,
  "lon": -72.1999624,
  "tags": {
    "amenity": "hospital"
  }
},
{
  "type": "node",
  "id": 9142808382,
  "lat": 10.9363951,
  "lon": -74.7820817,
  "tags": {
    "addr:city": "Soledad",
    "addr:street": "Avenida Calle 30",
    "amenity": "clinic",
    "healthcare": "clinic",
    "name": "Viva 1A IPS"
  }
},
{
  "type": "node",
  "id": 9487066918,
  "lat": 10.4058218,
  "lon": -75.4849894,
  "tags": {
    "amenity": "clinic",
    "healthcare": "clinic",
    "name": "Centro de salud Olaya Herrera"
  }
},
{
  "type": "node",
  "id": 9526086119,
  "lat": 11.0189283,
  "lon": -74.8517817,
  "tags": {
    "amenity": "clinic",
    "healthcare": "clinic",
    "name": "Centro Medico Uninorte"
  }
},
{
  "type": "node",
  "id": 9592727617,
  "lat": 10.4474564,
  "lon": -75.5164792,
  "tags": {
    "amenity": "clinic",
    "healthcare": "clinic",
    "name": "Health Cars - servicio integral de salud"
  }
},
{
  "type": "node",
  "id": 9773621182,
  "lat": 10.9732352,
  "lon": -74.7804889,
  "tags": {
    "amenity": "hospital",
    "healthcare": "hospital",
    "name": "Hospital General De Barranquilla",
    "operator": "Mi Red IPS",
    "operator:type": "public"
  }
},
{
  "type": "node",
  "id": 9937061821,
  "lat": 11.0857008,
  "lon": -71.8555413,
  "tags": {
    "amenity": "hospital",
    "healthcare": "hospital",
    "name": "Hospital 1 de Sinamaica"
  }
},
{
  "type": "node",
  "id": 9975717218,
  "lat": 11.0087871,
  "lon": -74.8154999,
  "tags": {
    "addr:housenumber": "84-96",
    "addr:street": "Carrera 55",
    "amenity": "clinic",
    "name": "Cesac Mutualser norte",
    "opening_hours": "Mo-Su 06:00-18:00"
  }
},
{
  "type": "node",
  "id": 10003548410,
  "lat": 9.3253855,
  "lon": -74.9224489,
  "tags": {
    "amenity": "hospital",
    "healthcare": "hospital",
    "name": "Centro de Salud Juan Arias"
  }
},
{
  "type": "node",
  "id": 10183934334,
  "lat": 9.2744835,
  "lon": -74.8096833,
  "tags": {
    "amenity": "clinic",
    "name": "Cad vida IPS"
  }
},
{
  "type": "node",
  "id": 10238104763,
  "lat": 9.1841588,
  "lon": -75.5480770,
  "tags": {
    "amenity": "hospital",
    "name": "Manexka"
  }
},
{
  "type": "node",
  "id": 10295860473,
  "lat": 10.6951869,
  "lon": -71.6258960,
  "tags": {
    "amenity": "hospital",
    "healthcare": "laboratory",
    "healthcare:speciality": "radiology",
    "name": "C.I.D. Tomocid"
  }
},
{
  "type": "node",
  "id": 10756751673,
  "lat": 11.3629216,
  "lon": -72.1377556,
  "tags": {
    "amenity": "hospital",
    "healthcare": "hospital",
    "name": "Sede Hospital de Maicao"
  }
},
{
  "type": "node",
  "id": 10769334920,
  "lat": 10.4447740,
  "lon": -71.6510554,
  "tags": {
    "amenity": "hospital",
    "healthcare": "hospital",
    "name": "Ambulatorio Rural de Palmarejo"
  }
},
{
  "type": "node",
  "id": 10769334922,
  "lat": 10.4400096,
  "lon": -71.6510977,
  "tags": {
    "amenity": "hospital",
    "healthcare": "hospital",
    "name": "Modulo Barrio Adentro"
  }
},
{
  "type": "node",
  "id": 10776567466,
  "lat": 10.5469619,
  "lon": -71.5237717,
  "tags": {
    "amenity": "hospital",
    "healthcare": "hospital",
    "name": "IVSS Ambulatorio Santa Rita",
    "operator": "Instituto Venezolano de los Seguros Sociales",
    "operator:short": "IVSS",
    "operator:type": "government",
    "operator:wikidata": "Q9008775"
  }
},
{
  "type": "node",
  "id": 10776567500,
  "lat": 10.5441023,
  "lon": -71.5167271,
  "tags": {
    "amenity": "hospital",
    "healthcare": "hospital",
    "name": "Hospital Dr. Senen Castillo I Reverol"
  }
},
{
  "type": "node",
  "id": 11221653437,
  "lat": 10.6068477,
  "lon": -75.2851573,
  "tags": {
    "amenity": "hospital",
    "name": "Hospital de Santa Catalina"
  }
},
{
  "type": "node",
  "id": 11393214369,
  "lat": 12.3276332,
  "lon": -71.6758489,
  "tags": {
    "amenity": "clinic",
    "name": "Centro de Salud Comunidad Paraíso",
    "opening_hours": "24/7"
  }
},
{
  "type": "node",
  "id": 11596075823,
  "lat": 10.9942154,
  "lon": -74.8151390,
  "tags": {
    "amenity": "clinic",
    "healthcare": "clinic",
    "name": "Te oigo centro audiológico S.A.S"
  }
},
{
  "type": "node",
  "id": 11762261165,
  "lat": 11.0141732,
  "lon": -74.8365776,
  "tags": {
    "addr:city": "Barranquilla",
    "addr:housenumber": "67",
    "addr:street": "Calle 107",
    "amenity": "clinic",
    "description": "Professional and comprehensive diagnosis of everything related to the control and prevention of foot conditions.",
    "healthcare": "clinic",
    "healthcare:speciality": "podiatry",
    "name": "Dr, Scholl's Barranquilla",
    "opening_hours": "Mo-Sa 07:00--17:00",
    "phone": "+57 3052999482",
    "website": "www.drschollsbarranquilla.com"
  }
},
{
  "type": "node",
  "id": 11810022108,
  "lat": 9.3754201,
  "lon": -75.2710663,
  "tags": {
    "amenity": "clinic",
    "healthcare": "clinic",
    "name": "Global Health Group",
    "shop": "medical_supply"
  }
},
{
  "type": "node",
  "id": 11893645569,
  "lat": 10.1145125,
  "lon": -71.2534012,
  "tags": {
    "addr:postcode": "4016",
    "addr:street": "Carretera V",
    "alt_name": "Clínica Sur PDVSA",
    "amenity": "clinic",
    "healthcare": "clinic",
    "name": "Clínica Sur",
    "opening_hours": "24/7",
    "operator": "PDVSA",
    "operator:type": "public"
  }
},
{
  "type": "node",
  "id": 11914025769,
  "lat": 10.4146166,
  "lon": -75.5344193,
  "tags": {
    "addr:street": "Calle 29B",
    "amenity": "clinic",
    "healthcare": "clinic",
    "name": "colmedicos laboratorio"
  }
},
{
  "type": "node",
  "id": 12038279300,
  "lat": 9.9634668,
  "lon": -71.1181819,
  "tags": {
    "amenity": "clinic",
    "name": "Consultorio Barrio Adentro (Oftalmológico)",
    "operator": "MPPS"
  }
},
{
  "type": "node",
  "id": 12344942314,
  "lat": 11.0001733,
  "lon": -74.7992658,
  "tags": {
    "amenity": "clinic",
    "healthcare": "clinic",
    "name": "Mutualser IPS Pérez Radiólogos",
    "website": "https://www.mutualser.com",
    "wheelchair": "yes"
  }
},
{
  "type": "node",
  "id": 12608652272,
  "lat": 11.0003448,
  "lon": -74.8137974,
  "tags": {
    "amenity": "clinic",
    "healthcare": "clinic",
    "name": "GEMELLI"
  }
},
{
  "type": "node",
  "id": 12847373356,
  "lat": 10.2553458,
  "lon": -74.9123968,
  "tags": {
    "amenity": "hospital",
    "name": "Hospital de Calamar"
  }
},
{
  "type": "node",
  "id": 13038029279,
  "lat": 10.9230020,
  "lon": -74.7638343,
  "tags": {
    "addr:city": "Soledad",
    "addr:housenumber": "26B - 05",
    "addr:street": "Calle 18",
    "amenity": "clinic",
    "healthcare": "clinic",
    "name": "mutualser PÉREZ RADIÓLOGOS S.A.S.",
    "opening_hours": "Mo-Fr 07:00-18:00; Sa 07:00-13:00",
    "website": "https://www.citisalud.com.co/",
    "wheelchair": "yes"
  }
},
{
  "type": "node",
  "id": 13182363344,
  "lat": 10.4946600,
  "lon": -73.2656415,
  "tags": {
    "amenity": "hospital",
    "healthcare": "hospital"
  }
},
{
  "type": "way",
  "id": 54926816,
  "center": {
    "lat": 10.4205153,
    "lon": -75.5327825
  },
  "nodes": [
    691132025,
    691132026,
    1786063636,
    1786063619,
    1102121561,
    9785932834,
    9785932843,
    691132025
  ],
  "tags": {
    "amenity": "clinic",
    "building": "yes",
    "emergency": "yes",
    "healthcare": "clinic",
    "name": "Clínica Cartagena del Mar S.A.S,"
  }
},
{
  "type": "way",
  "id": 94668897,
  "center": {
    "lat": 10.3919449,
    "lon": -75.4869756
  },
  "nodes": [
    1099030002,
    11196812163,
    11196812172,
    12652562021,
    1099030034,
    11196812164,
    1099029995,
    12652562034,
    1099030013,
    12652562046,
    12652562045,
    12652562042,
    12652562032,
    1099029986,
    11196812173,
    11196812174,
    11196812165,
    1099029999,
    12652562031,
    12652562022,
    1099030002
  ],
  "tags": {
    "amenity": "hospital",
    "healthcare": "hospital",
    "name": "Clínica Blas de Lezo"
  }
},
{
  "type": "way",
  "id": 97718182,
  "center": {
    "lat": 11.0389932,
    "lon": -74.8251574
  },
  "nodes": [
    1131254897,
    12989774415,
    1131254876,
    12989774412,
    8896231617,
    1131254888,
    1131254890,
    12989774414,
    6323816783,
    1131254897
  ],
  "tags": {
    "addr:city": "Barranquilla",
    "addr:housenumber": "107-15",
    "addr:neighbourhood": "Barrio Las Flores",
    "addr:street": "Vía 40",
    "amenity": "hospital",
    "building": "hospital",
    "building:colour": "white",
    "building:levels": "1",
    "building:material": "plaster",
    "contact:email": "citasmedicas@miredips.org",
    "contact:phone": "+57 605 322 5919",
    "contact:whatsapp": "+57 315 405 6834",
    "emergency": "yes",
    "healthcare": "hospital",
    "healthcare:speciality": "general;emergency",
    "name": "PASO Barrio LAS FLORES  Urgencias",
    "opening_hours": "24/7",
    "phone": "+57 605 322 5919",
    "roof:levels": "0",
    "roof:shape": "flat",
    "source": "local knowledge;ESRI",
    "wheelchair": "yes"
  }
},
{
  "type": "way",
  "id": 109808868,
  "center": {
    "lat": 10.4123511,
    "lon": -75.5365321
  },
  "nodes": [
    1256041949,
    1256040071,
    5807595490,
    5807595489,
    1256041685,
    1256042196,
    1256041949
  ],
  "tags": {
    "addr:street": "Avenida Calle 26",
    "amenity": "hospital",
    "building": "yes",
    "healthcare": "hospital",
    "name": "Clínica Quirúrgica de Manga",
    "source": "Kaart Ground Survey 2018"
  }
},
{
  "type": "way",
  "id": 136011725,
  "center": {
    "lat": 10.4127489,
    "lon": -75.4569772
  },
  "nodes": [
    1492621543,
    1492621542,
    1492621544,
    1492621547,
    1472861733,
    1472861705,
    1492621541,
    1492621540,
    1492621543
  ],
  "tags": {
    "amenity": "hospital",
    "emergency": "yes",
    "healthcare": "hospital",
    "healthcare:speciality": "general;emergency;orthodontics",
    "name": "Hospital El Pozón",
    "source": "bing"
  }
},
{
  "type": "way",
  "id": 148111400,
  "center": {
    "lat": 10.9705777,
    "lon": -74.8005292
  },
  "nodes": [
    1612133331,
    2361009128,
    2361009127,
    1612133333,
    9295295538,
    1612133332,
    5416887376,
    1612133334,
    9326961936,
    9254115914,
    9254115913,
    1612133331
  ],
  "tags": {
    "addr:city": "Barranquilla",
    "addr:housenumber": "23-70",
    "addr:street": "Calle 57",
    "amenity": "hospital",
    "barrier": "wall",
    "healthcare": "hospital",
    "name": "Hospital Universitario CARI E.S.E. (Sede Alta Complejidad)",
    "operator": "Gobernacion del Atlántico",
    "operator:type": "government",
    "source": "Kaart Ground Survey 2018;local knowledge"
  }
},
{
  "type": "way",
  "id": 153013655,
  "center": {
    "lat": 9.2383363,
    "lon": -75.8118438
  },
  "nodes": [
    1657647697,
    1657647699,
    1657647689,
    1657647687,
    1657647697
  ],
  "tags": {
    "amenity": "hospital",
    "emergency": "yes",
    "name": "Hospital San Vicente de paul",
    "website": "https://www.esesanvicentedepauldelorica.gov.co/"
  }
},
{
  "type": "way",
  "id": 153190653,
  "center": {
    "lat": 9.2252718,
    "lon": -75.8244510
  },
  "nodes": [
    1659050472,
    1659050453,
    1659050431,
    1659050462,
    1659050472
  ],
  "tags": {
    "amenity": "hospital",
    "emergency": "yes",
    "name": "ESE CAMU Santa Teresita"
  }
},
{
  "type": "way",
  "id": 154316124,
  "center": {
    "lat": 9.2271779,
    "lon": -75.8201182
  },
  "nodes": [
    1668621375,
    1668621380,
    1668621406,
    2039246679,
    1668621379,
    1668621376,
    1668621375
  ],
  "tags": {
    "amenity": "hospital",
    "name": "Clínica la Trinidad"
  }
},
{
  "type": "way",
  "id": 157181023,
  "center": {
    "lat": 11.5465888,
    "lon": -72.9144416
  },
  "nodes": [
    1693949427,
    1693949434,
    1693949425,
    1693949428,
    1693949427
  ],
  "tags": {
    "addr:city": "Riohacha",
    "addr:housenumber": "11A-07",
    "addr:street": "Carrera 15",
    "amenity": "hospital",
    "barrier": "yes",
    "emergency": "yes",
    "healthcare": "hospital",
    "name": "Hospital Nuestra Señora de los Remedios",
    "phone": "+57 (5)7273312 - 3113394655"
  }
},
{
  "type": "way",
  "id": 163437160,
  "center": {
    "lat": 10.5130548,
    "lon": -74.1835979
  },
  "nodes": [
    1751347181,
    1751347178,
    1751347183,
    1751347185,
    1751347181
  ],
  "tags": {
    "amenity": "clinic",
    "building": "yes",
    "healthcare": "clinic",
    "name": "Clínica el Amparo"
  }
},
{
  "type": "way",
  "id": 163674606,
  "center": {
    "lat": 11.1839761,
    "lon": -73.8290908
  },
  "nodes": [
    1753513571,
    1753513577,
    1753513585,
    1753513573,
    1753513571
  ],
  "tags": {
    "amenity": "clinic",
    "building": "yes",
    "name": "Puesto de Salud de Machete Pelao"
  }
},
{
  "type": "way",
  "id": 183373129,
  "center": {
    "lat": 10.9435405,
    "lon": -74.7781569
  },
  "nodes": [
    5412591523,
    5412591522,
    5412591521,
    5412589820,
    6345181912,
    6345181911,
    6345181910,
    6345181909,
    5412591523
  ],
  "tags": {
    "addr:city": "Barranquilla",
    "addr:housenumber": "CALLE 23 No 5 -50",
    "addr:street": "Carrera 5",
    "amenity": "hospital",
    "emergency": "yes",
    "healthcare": "hospital",
    "name": "Camino Simón Bolivar",
    "note": "Si tiene ambulancia",
    "operator": "Mi Red IPS",
    "operator:type": "public",
    "source": "Kaart Ground Survey 2018"
  }
},
{
  "type": "way",
  "id": 184973605,
  "center": {
    "lat": 11.5488592,
    "lon": -72.9150431
  },
  "nodes": [
    1955466557,
    1955466560,
    1955466594,
    1955466590,
    1955466557
  ],
  "tags": {
    "amenity": "clinic",
    "building": "commercial",
    "building:material": "concrete",
    "name": "salad total eps"
  }
},
{
  "type": "way",
  "id": 184973660,
  "center": {
    "lat": 11.5472244,
    "lon": -72.9153053
  },
  "nodes": [
    1955465535,
    1955465532,
    1955464865,
    1955464875,
    1955465455,
    1955465452,
    1955465151,
    1955465182,
    1955465535
  ],
  "tags": {
    "amenity": "clinic",
    "building": "commercial",
    "healthcare": "clinic",
    "layer": "1",
    "name": "Antigua Clinica Riohacha"
  }
},
{
  "type": "way",
  "id": 186423973,
  "center": {
    "lat": 11.5309172,
    "lon": -72.9240504
  },
  "nodes": [
    1971201495,
    1971201475,
    1971201491,
    1971201502,
    1971201495
  ],
  "tags": {
    "addr:city": "Riohacha",
    "addr:housenumber": "Calle 27a",
    "addr:street": "Carrera 23",
    "amenity": "hospital",
    "name": "Puesto de Salud IPC"
  }
},
{
  "type": "way",
  "id": 201769074,
  "center": {
    "lat": 9.3072320,
    "lon": -75.3702837
  },
  "nodes": [
    2117821958,
    2117821960,
    2117821959,
    2117821962,
    2117821961,
    2117821964,
    2117821953,
    2117821950,
    2117821951,
    2117821952,
    2117821957,
    2117821955,
    2117821956,
    2117821954,
    2117821958
  ],
  "tags": {
    "amenity": "hospital",
    "building": "yes",
    "healthcare": "hospital",
    "name": "Clínica La Concepción",
    "source": "bing"
  }
},
{
  "type": "way",
  "id": 214368194,
  "center": {
    "lat": 10.9170744,
    "lon": -74.7629844
  },
  "nodes": [
    2239248207,
    2239248210,
    2239248192,
    2239248204,
    2239248197,
    2239248217,
    2239248207
  ],
  "tags": {
    "amenity": "hospital",
    "emergency": "yes",
    "name": "Hospital Departamental Juan Dominguez Romero de Soledad"
  }
},
{
  "type": "way",
  "id": 214552538,
  "center": {
    "lat": 10.9022762,
    "lon": -74.7895503
  },
  "nodes": [
    2240747600,
    2240747594,
    2240747599,
    2240747592,
    2240747600
  ],
  "tags": {
    "addr:city": "Soledad",
    "addr:housenumber": "8-38",
    "addr:street": "Calle 53A",
    "amenity": "hospital",
    "barrier": "wall",
    "emergency": "yes",
    "healthcare": "hospital",
    "name": "Centro de Salud Ciudadela Metropolitana"
  }
},
{
  "type": "way",
  "id": 227604393,
  "center": {
    "lat": 10.9156748,
    "lon": -74.7747351
  },
  "nodes": [
    6676342444,
    6676342423,
    6676342422,
    2362574025,
    2362574026,
    2362574027,
    6676342440,
    6676342441,
    6676342443,
    6676342442,
    6676342444
  ],
  "tags": {
    "addr:street": "Avenida Calle 30",
    "amenity": "hospital",
    "building": "yes",
    "emergency": "no",
    "healthcare": "hospital",
    "name": "EPS Sura Soledad",
    "source": "Kaart Ground Survey 2018"
  }
},
{
  "type": "way",
  "id": 231139925,
  "center": {
    "lat": 11.5502031,
    "lon": -72.9086056
  },
  "nodes": [
    2395469135,
    2395469493,
    2395469456,
    2395469123,
    2395469135
  ],
  "tags": {
    "amenity": "hospital",
    "healthcare": "hospital",
    "name": "ips"
  }
},
{
  "type": "way",
  "id": 231139981,
  "center": {
    "lat": 11.5501285,
    "lon": -72.9025541
  },
  "nodes": [
    2395469224,
    2395469216,
    2395469067,
    2395469078,
    2395469224
  ],
  "tags": {
    "addr:city": "Riohacha",
    "addr:street": "Calle: 9 Cr:1c",
    "amenity": "clinic",
    "healthcare": "clinic",
    "name": "centro de salud barrio arriba",
    "phone": "+57300 7002878"
  }
},
{
  "type": "way",
  "id": 231163206,
  "center": {
    "lat": 11.5419585,
    "lon": -72.9120246
  },
  "nodes": [
    2395729255,
    2395729265,
    2395729242,
    2395729234,
    2395729255
  ],
  "tags": {
    "amenity": "clinic",
    "building": "yes"
  }
},
{
  "type": "way",
  "id": 231219359,
  "center": {
    "lat": 10.5732693,
    "lon": -71.6382795
  },
  "nodes": [
    2396254478,
    2396254479,
    2396254480,
    2396254481,
    2396254478
  ],
  "tags": {
    "addr:city": "San Francisco",
    "addr:postcode": "4004",
    "addr:street": "Av 10",
    "amenity": "hospital",
    "emergency": "yes",
    "name": "Ambulatorio San Felipe"
  }
},
{
  "type": "way",
  "id": 231519429,
  "center": {
    "lat": 11.5447882,
    "lon": -72.9121388
  },
  "nodes": [
    2398909623,
    2398909649,
    2398909645,
    2398909616,
    9779307523,
    9779307522,
    2398909623
  ],
  "tags": {
    "addr:city": "Riohacha",
    "addr:housenumber": "11-75",
    "addr:street": "Calle 13",
    "amenity": "clinic",
    "building": "yes",
    "healthcare": "clinic",
    "healthcare:speciality": "emergency;intensive;ophthalmology;orthopaedics;cardiology;maternity",
    "name": "Cedes",
    "opening_hours": "24/7",
    "phone": "+57 300 8376401 ext. +57 (5) 7280717",
    "website": "clinicacedes.com"
  }
},
{
  "type": "way",
  "id": 240569720,
  "center": {
    "lat": 10.0608497,
    "lon": -72.5370597
  },
  "nodes": [
    2482946556,
    2482946558,
    2482946560,
    2482946562,
    2482946564,
    2482946566,
    2482946556
  ],
  "tags": {
    "addr:city": "Machiques",
    "addr:postcode": "4021",
    "amenity": "hospital",
    "emergency": "yes",
    "name": "Hospital Rural Tipo II \"Nuestra Señora del Carmen\""
  }
},
{
  "type": "way",
  "id": 256047235,
  "center": {
    "lat": 10.7064182,
    "lon": -71.6382091
  },
  "nodes": [
    2617458056,
    2617458057,
    2617458058,
    2617458059,
    2617458056
  ],
  "tags": {
    "amenity": "hospital",
    "emergency": "yes",
    "helipad": "no",
    "name": "IVSS Ambulatorio Norte de Maracaibo"
  }
},
{
  "type": "way",
  "id": 256082669,
  "center": {
    "lat": 10.6467154,
    "lon": -71.6089816
  },
  "nodes": [
    2617790568,
    2617790569,
    2617790570,
    2617790571,
    2617790572,
    2617790573,
    2617790574,
    2617790568
  ],
  "tags": {
    "amenity": "hospital",
    "building": "yes",
    "emergency": "yes",
    "healthcare": "hospital",
    "name": "Ambulatorio Clínica Popular Veritas"
  }
},
{
  "type": "way",
  "id": 256082875,
  "center": {
    "lat": 10.6377633,
    "lon": -71.6267084
  },
  "nodes": [
    2617792386,
    2617792387,
    8762043964,
    2617792388,
    2617792389,
    2617792390,
    2617792391,
    2617792392,
    2617792393,
    2617792394,
    2617792395,
    2617792396,
    2617792397,
    2617792398,
    2617792399,
    2617792400,
    8762043967,
    2617792386
  ],
  "tags": {
    "amenity": "hospital",
    "emergency": "yes",
    "healthcare": "hospital",
    "name": "Ambulatorio Sabaneta"
  }
},
{
  "type": "way",
  "id": 258771162,
  "center": {
    "lat": 9.3727210,
    "lon": -75.2725435
  },
  "nodes": [
    2640967146,
    2640967149,
    2640967216,
    2640967181,
    2640967183,
    2640967194,
    2640967191,
    2640967179,
    2640967173,
    2640967170,
    2640967146
  ],
  "tags": {
    "amenity": "hospital",
    "healthcare": "hospital",
    "name": "Hospital Los Palmitos"
  }
},
{
  "type": "way",
  "id": 258806095,
  "center": {
    "lat": 9.3622440,
    "lon": -75.2755667
  },
  "nodes": [
    2641299522,
    2641299526,
    2641299524,
    2641299519,
    2641299522
  ],
  "tags": {
    "amenity": "hospital",
    "name": "Puesto de Salud"
  }
},
{
  "type": "way",
  "id": 259607026,
  "center": {
    "lat": 10.2173051,
    "lon": -71.3313769
  },
  "nodes": [
    2662097688,
    2662097684,
    2650400905,
    2650400908,
    2650400909,
    2650400912,
    2660538218,
    2662097680,
    2662097688
  ],
  "tags": {
    "amenity": "hospital",
    "building": "yes",
    "emergency": "yes",
    "name": "Centro Medico Colon"
  }
},
{
  "type": "way",
  "id": 260780613,
  "center": {
    "lat": 10.2119848,
    "lon": -71.3274039
  },
  "nodes": [
    2663397749,
    2663397750,
    8763745804,
    2663397751,
    2663397752,
    2663397753,
    2663397754,
    2663397755,
    2663397756,
    2663397757,
    2663397758,
    2663397759,
    2663397760,
    2663397761,
    2663397762,
    2663397749
  ],
  "tags": {
    "amenity": "hospital",
    "emergency": "yes",
    "name": "Clínica Médicos Asesores"
  }
},
{
  "type": "way",
  "id": 261844488,
  "center": {
    "lat": 10.7706699,
    "lon": -73.0109617
  },
  "nodes": [
    2674660389,
    2674660391,
    2674660393,
    2674660395,
    2674660389
  ],
  "tags": {
    "addr:city": "San Juan del Cesar",
    "addr:housename": "Clínica San Juan",
    "amenity": "hospital",
    "building": "yes",
    "name": "Clínica San Juan"
  }
},
{
  "type": "way",
  "id": 261844601,
  "center": {
    "lat": 10.7709282,
    "lon": -73.0099224
  },
  "nodes": [
    2674661983,
    2674661984,
    2674661985,
    2674661986,
    2674661983
  ],
  "tags": {
    "addr:housename": "Clínica Someda",
    "amenity": "hospital",
    "building": "yes",
    "name": "Clínica Someda"
  }
},
{
  "type": "way",
  "id": 264153810,
  "center": {
    "lat": 10.5179035,
    "lon": -74.1836157
  },
  "nodes": [
    2698144969,
    2698144970,
    2698144971,
    2698144972,
    2698144969
  ],
  "tags": {
    "amenity": "hospital",
    "building": "yes",
    "name": "Clínica Santa teresa"
  }
},
{
  "type": "way",
  "id": 264153811,
  "center": {
    "lat": 10.5226195,
    "lon": -74.1936046
  },
  "nodes": [
    2698144973,
    2698144974,
    2698144975,
    2698144976,
    2698144973
  ],
  "tags": {
    "amenity": "clinic",
    "building": "yes",
    "healthcare": "clinic",
    "name": "Puesto de salud paz del rio"
  }
},
{
  "type": "way",
  "id": 289318988,
  "center": {
    "lat": 11.2349999,
    "lon": -74.2123306
  },
  "nodes": [
    2928672139,
    2928672140,
    2928672141,
    2928672142,
    2928672143,
    5531343335,
    5531343334,
    5531343336,
    2928672144,
    6410538446,
    2928672139
  ],
  "tags": {
    "addr:city": "Santa Marta",
    "addr:housenumber": "Cra 4a",
    "addr:street": "26A-71",
    "amenity": "clinic",
    "healthcare": "clinic",
    "healthcare:speciality": "cardiology;intensive;emergency",
    "name": "Clínica Avidanti",
    "operator": "Avidanti",
    "operator:type": "public"
  }
},
{
  "type": "way",
  "id": 289465365,
  "center": {
    "lat": 11.2362805,
    "lon": -74.2019413
  },
  "nodes": [
    2930179172,
    7681144142,
    3469198506,
    2930179173,
    2930179174,
    2930179175,
    2930179172
  ],
  "tags": {
    "addr:city": "Santa Marta",
    "addr:housenumber": "23-42",
    "addr:street": "carrera 14",
    "amenity": "hospital",
    "emergency": "yes",
    "healthcare": "hospital",
    "name": "E.S.E. Hospital Universitario Julio Méndez Barreneche",
    "website": "https://www.hujmb.gov.co/"
  }
},
{
  "type": "way",
  "id": 289465366,
  "center": {
    "lat": 11.2369192,
    "lon": -74.1950211
  },
  "nodes": [
    2930179176,
    6405524593,
    6405524594,
    6405524595,
    6405524596,
    6405524597,
    6405524598,
    6405524599,
    6405524600,
    6405524601,
    6405524602,
    2930179177,
    2930179178,
    6405524586,
    6405524587,
    6405524588,
    6405524589,
    6405524590,
    6405524591,
    6405524592,
    2930179176
  ],
  "tags": {
    "addr:housenumber": "con Cra. 19",
    "addr:street": "Calle 22",
    "amenity": "clinic",
    "building": "yes",
    "email": "info@clinicamarcaribe.com",
    "healthcare": "clinic",
    "name": "Clínica Mar caribe",
    "website": "https://clinicamarcaribe.com/"
  }
},
{
  "type": "way",
  "id": 295111740,
  "center": {
    "lat": 9.3024614,
    "lon": -75.3890582
  },
  "nodes": [
    2987808433,
    2987808434,
    2987808435,
    2987808533,
    2987808436,
    2987808433
  ],
  "tags": {
    "amenity": "clinic",
    "building": "yes",
    "healthcare": "clinic",
    "name": "Clínica Las Peñitas"
  }
},
{
  "type": "way",
  "id": 295853300,
  "center": {
    "lat": 9.3041271,
    "lon": -75.3999539
  },
  "nodes": [
    2996138433,
    2996138534,
    2996138535,
    12981484505,
    2996138933,
    2996138834,
    2996138433
  ],
  "tags": {
    "amenity": "hospital",
    "building": "yes",
    "name": "Hospital Universitario"
  }
},
{
  "type": "way",
  "id": 295888466,
  "center": {
    "lat": 9.3063907,
    "lon": -75.3934230
  },
  "nodes": [
    2996516733,
    2996516833,
    13034242134,
    2996516933,
    2996517233,
    2996517833,
    2996517834,
    2996517835,
    2996516733
  ],
  "tags": {
    "amenity": "clinic",
    "building": "yes",
    "name": "Clínica Santa María"
  }
},
{
  "type": "way",
  "id": 297977571,
  "center": {
    "lat": 9.2958254,
    "lon": -75.3971135
  },
  "nodes": [
    3018782549,
    3018782546,
    3018782550,
    3018782552,
    3018782549
  ],
  "tags": {
    "amenity": "clinic",
    "name": "Clínica Salud Social S.A.S."
  }
},
{
  "type": "way",
  "id": 297994126,
  "center": {
    "lat": 9.2981948,
    "lon": -75.3964180
  },
  "nodes": [
    3019011614,
    3019011612,
    3019011613,
    3019011615,
    3019011614
  ],
  "tags": {
    "amenity": "clinic",
    "healthcare": "clinic",
    "name": "Centro Médico Policia Nacional"
  }
},
{
  "type": "way",
  "id": 298245006,
  "center": {
    "lat": 9.3134697,
    "lon": -75.3998065
  },
  "nodes": [
    3021571049,
    3021571050,
    3021571048,
    3021571047,
    3021571049
  ],
  "tags": {
    "amenity": "hospital",
    "name": "IPS San Luis"
  }
},
{
  "type": "way",
  "id": 298699146,
  "center": {
    "lat": 9.3047191,
    "lon": -75.3931108
  },
  "nodes": [
    3026254011,
    3026254012,
    3026254014,
    3026254013,
    3026254011
  ],
  "tags": {
    "amenity": "clinic",
    "healthcare": "clinic",
    "name": "Clínica Rey David"
  }
},
{
  "type": "way",
  "id": 298699197,
  "center": {
    "lat": 9.3042917,
    "lon": -75.3928498
  },
  "nodes": [
    3026258392,
    3026258391,
    3026258393,
    3026258394,
    3026258392
  ],
  "tags": {
    "amenity": "hospital",
    "healthcare": "hospital",
    "name": "Hospital San Francisco"
  }
},
{
  "type": "way",
  "id": 298736902,
  "center": {
    "lat": 9.3068967,
    "lon": -75.3938290
  },
  "nodes": [
    3026537490,
    3026537491,
    3026537488,
    3026537489,
    3026537487,
    3026537490
  ],
  "tags": {
    "amenity": "clinic",
    "name": "CLÍNICA DE VARICES S.A.S."
  }
},
{
  "type": "way",
  "id": 298737249,
  "center": {
    "lat": 9.2983755,
    "lon": -75.3936944
  },
  "nodes": [
    3026542544,
    3026542543,
    3026542541,
    3026542540,
    3026542542,
    3026542544
  ],
  "tags": {
    "amenity": "clinic",
    "healthcare": "clinic",
    "name": "Clínica de la Sabana"
  }
},
{
  "type": "way",
  "id": 298737750,
  "center": {
    "lat": 9.2988644,
    "lon": -75.3957839
  },
  "nodes": [
    3026561611,
    3026561609,
    3026561608,
    3026561610,
    3026561611
  ],
  "tags": {
    "amenity": "clinic",
    "building": "yes",
    "healthcare": "clinic",
    "name": "Clínica General de Sucre"
  }
},
{
  "type": "way",
  "id": 298737751,
  "center": {
    "lat": 9.3055758,
    "lon": -75.3914175
  },
  "nodes": [
    3026561615,
    3026561614,
    3026561617,
    3026561618,
    3026561619,
    3026561615
  ],
  "tags": {
    "amenity": "clinic",
    "healthcare": "clinic",
    "name": "Clínica Oftalmológica de Sincelejo"
  }
},
{
  "type": "way",
  "id": 298737752,
  "center": {
    "lat": 9.3055130,
    "lon": -75.3914946
  },
  "nodes": [
    3026561613,
    3026561612,
    3026561616,
    3026561617,
    3026561613
  ],
  "tags": {
    "amenity": "clinic",
    "healthcare": "clinic",
    "name": "IPS Unidad Médica El Bosque"
  }
},
{
  "type": "way",
  "id": 300072782,
  "center": {
    "lat": 9.3130895,
    "lon": -75.3823537
  },
  "nodes": [
    3041819989,
    3041819987,
    3041819986,
    3041819988,
    3041819989
  ],
  "tags": {
    "amenity": "hospital",
    "name": "IPS LIBERTAD"
  }
},
{
  "type": "way",
  "id": 334266834,
  "center": {
    "lat": 10.5610263,
    "lon": -71.6370808
  },
  "nodes": [
    3413780853,
    3413780854,
    3413780855,
    3413780856,
    3413780857,
    3413780858,
    3413780859,
    3413780860,
    3413780861,
    3413780862,
    3413780853
  ],
  "tags": {
    "amenity": "clinic",
    "building": "yes",
    "name": "Clínica Madre María"
  }
},
{
  "type": "way",
  "id": 334438210,
  "center": {
    "lat": 10.9740722,
    "lon": -74.8013524
  },
  "nodes": [
    3415299208,
    3415299211,
    3415299212,
    3415299215,
    3415299208
  ],
  "tags": {
    "addr:city": "Barramquilla",
    "addr:housenumber": "25-151",
    "addr:street": "Calle 57",
    "amenity": "clinic",
    "barrier": "wall",
    "healthcare": "clinic",
    "name": "Clínica General del Norte - Promoción y Prevención",
    "operator": "Clinica General del Norte"
  }
},
{
  "type": "way",
  "id": 335966727,
  "center": {
    "lat": 10.5901687,
    "lon": -71.6305440
  },
  "nodes": [
    3430570559,
    3430570560,
    3430570561,
    3430570562,
    3430570559
  ],
  "tags": {
    "amenity": "hospital"
  }
},
{
  "type": "way",
  "id": 335978860,
  "center": {
    "lat": 10.5531819,
    "lon": -71.6320020
  },
  "nodes": [
    3430662184,
    3430662185,
    3430662186,
    3430662187,
    3430662184
  ],
  "tags": {
    "amenity": "hospital",
    "name": "Hospital Materno"
  }
},
{
  "type": "way",
  "id": 335993521,
  "center": {
    "lat": 10.5767887,
    "lon": -71.6299512
  },
  "nodes": [
    3430786792,
    3430789108,
    3430789107,
    3430789093,
    3430789094,
    3430789095,
    3430789096,
    3430789097,
    3430789098,
    3430789099,
    3430789100,
    3430789101,
    3430789102,
    3430789103,
    3430789104,
    3430789105,
    3430789106,
    3430786792
  ],
  "tags": {
    "amenity": "hospital",
    "name": "IVSS Hospital Manuel Noriega Trigo"
  }
},
{
  "type": "way",
  "id": 338076033,
  "center": {
    "lat": 11.0275202,
    "lon": -74.2059073
  },
  "nodes": [
    3451399678,
    3451399679,
    3451399677,
    3451399676,
    3451399678
  ],
  "tags": {
    "amenity": "hospital",
    "building": "yes",
    "name": "Centro de salud Cordobita",
    "operator": "Hospital San Cristobal Cienaga"
  }
},
{
  "type": "way",
  "id": 338076035,
  "center": {
    "lat": 10.9314875,
    "lon": -74.2524544
  },
  "nodes": [
    3451399488,
    3451399487,
    3451399489,
    3451399598,
    3451399490,
    3451399488
  ],
  "tags": {
    "amenity": "hospital",
    "name": "Centro de salud Sevillano",
    "operator": "Hospital San Cristobal"
  }
},
{
  "type": "way",
  "id": 338076036,
  "center": {
    "lat": 11.0074964,
    "lon": -74.2395599
  },
  "nodes": [
    3451399636,
    3451399637,
    3451399635,
    3451399634,
    3451399636
  ],
  "tags": {
    "amenity": "hospital",
    "name": "Centro de salud la Floresta",
    "operator": "Hospital San Cristobal Cienaga"
  }
},
{
  "type": "way",
  "id": 339714328,
  "center": {
    "lat": 10.6111662,
    "lon": -74.2678637
  },
  "nodes": [
    3469196982,
    3469196983,
    3469196981,
    3469196980,
    3469196982
  ],
  "tags": {
    "amenity": "hospital",
    "name": "Hospital El Retén"
  }
},
{
  "type": "way",
  "id": 344536518,
  "center": {
    "lat": 10.4676628,
    "lon": -73.2546679
  },
  "nodes": [
    3512766497,
    3512766498,
    3512766499,
    3512766500,
    3512766497
  ],
  "tags": {
    "addr:city": "Valledupar",
    "addr:country": "CO",
    "addr:housenumber": "19-65",
    "addr:street": "Transversal 18",
    "amenity": "hospital",
    "contact:phone": "+576055712331",
    "fax": "+576055702121",
    "healthcare": "hospital",
    "name": "IDRECC - Centro de Rehabilitación",
    "operator": "Gobernación del Cesar",
    "phone": "+576055713080"
  }
},
{
  "type": "way",
  "id": 356128869,
  "center": {
    "lat": 10.3904618,
    "lon": -75.4946872
  },
  "nodes": [
    3616323179,
    8760027278,
    8760027281,
    3616323178,
    3616323184,
    8760027268,
    8760027252,
    8760027272,
    8760027273,
    8760027236,
    8760027241,
    8760027262,
    8760027263,
    3616323185,
    11181554461,
    11181554462,
    11181554464,
    11181554466,
    11181554458,
    11181554456,
    11181554454,
    11181554452,
    11181506020,
    11181554444,
    3616323179
  ],
  "tags": {
    "addr:city": "Cartagena de indias",
    "addr:housenumber": "#40-129",
    "addr:street": "Transversal 54",
    "amenity": "hospital",
    "emergency": "yes",
    "healthcare": "hospital",
    "name": "Clínica Blas de Lezo - Urgencias",
    "phone": "+57 5 6632604"
  }
},
{
  "type": "way",
  "id": 359378382,
  "center": {
    "lat": 10.6359960,
    "lon": -71.6537374
  },
  "nodes": [
    3641043707,
    3641043708,
    3641043709,
    1423247541,
    3641043707
  ],
  "tags": {
    "amenity": "hospital",
    "name": "Módulo Los Claveles"
  }
},
{
  "type": "way",
  "id": 359407395,
  "center": {
    "lat": 10.6421643,
    "lon": -71.6683224
  },
  "nodes": [
    11347643437,
    3641291058,
    3641291059,
    1996884378,
    11347643437
  ],
  "tags": {
    "amenity": "hospital",
    "name": "AMBULATORIO SAN MIGUEL"
  }
},
{
  "type": "way",
  "id": 362829077,
  "center": {
    "lat": 10.6887325,
    "lon": -71.6626919
  },
  "nodes": [
    3670783503,
    3670783504,
    3670783505,
    3670783506,
    3670783503
  ],
  "tags": {
    "amenity": "hospital",
    "healthcare": "nurse",
    "name": "Ambulatorio La Victoria"
  }
},
{
  "type": "way",
  "id": 375492563,
  "center": {
    "lat": 10.9491249,
    "lon": -74.7992854
  },
  "nodes": [
    8896213653,
    3788513925,
    3788502847,
    8896213655,
    8896213654,
    8896213653
  ],
  "tags": {
    "addr:city": "Barranquilla",
    "addr:housenumber": "8h-68",
    "addr:street": "Avenida Calle 45",
    "amenity": "hospital",
    "barrier": "wall",
    "healthcare": "hospital",
    "name": "CAMINO MURILLO",
    "operator": "Mi Red IPS",
    "operator:type": "public"
  }
},
{
  "type": "way",
  "id": 377085585,
  "center": {
    "lat": 9.8251795,
    "lon": -75.1228944
  },
  "nodes": [
    3804484978,
    3804484979,
    3804484980,
    3804484981,
    3804484982,
    3804484983,
    3804484984,
    3804484985,
    3804484986,
    3804484978
  ],
  "tags": {
    "amenity": "hospital",
    "healthcare": "hospital",
    "name": "Hospital De San Jacinto",
    "official_name": "E.S.E. Hospital Local Del Municipio De San Jacinto Bolivar",
    "phone": "+57 304 2431795"
  }
},
{
  "type": "way",
  "id": 389179020,
  "center": {
    "lat": 10.6423887,
    "lon": -71.6056553
  },
  "nodes": [
    3923360193,
    3923360194,
    4415058603,
    11603504133,
    2838832198,
    3923360196,
    1260305062,
    3923360193
  ],
  "tags": {
    "addr:city": "Maracaibo",
    "amenity": "hospital",
    "healthcare": "hospital",
    "name": "Hospital Central Dr. Urquinaona"
  }
},
{
  "type": "way",
  "id": 390606405,
  "center": {
    "lat": 10.2089773,
    "lon": -71.3102866
  },
  "nodes": [
    3937711115,
    3937711111,
    3937711118,
    4139530155,
    4139530154,
    3937711120,
    3937711134,
    3937711132,
    3937711117,
    3937711116,
    3937711113,
    3937711114,
    3937711110,
    3937711112,
    3937711109,
    3937711107,
    3937711102,
    3937711103,
    3937711090,
    3937711095,
    3937711097,
    3937711096,
    3937711099,
    3937711104,
    3937711115
  ],
  "tags": {
    "amenity": "hospital",
    "building": "yes",
    "name": "Hospital Pedro Garcia Clara"
  }
},
{
  "type": "way",
  "id": 392813022,
  "center": {
    "lat": 11.5373410,
    "lon": -72.9069424
  },
  "nodes": [
    3960071106,
    3960071107,
    3960078241,
    3960071108,
    3960071109,
    3960071106
  ],
  "tags": {
    "addr:housenumber": "Carrera 8/ calle 21",
    "addr:street": "Carrera 8",
    "amenity": "hospital",
    "building": "hospital",
    "healthcare": "hospital",
    "healthcare:speciality": "general",
    "name": "EPS",
    "operator": "Ministerio de Salud y Protección Social",
    "operator:short": "MinSalud",
    "operator:type": "public",
    "operator:wikidata": "Q6867116"
  }
},
{
  "type": "way",
  "id": 392814329,
  "center": {
    "lat": 11.5372993,
    "lon": -72.9058959
  },
  "nodes": [
    3960084062,
    3960084063,
    3960084064,
    3960084066,
    3960084065,
    3960084062
  ],
  "tags": {
    "amenity": "hospital"
  }
},
{
  "type": "way",
  "id": 393240564,
  "center": {
    "lat": 9.4015468,
    "lon": -75.6766475
  },
  "nodes": [
    3964542065,
    3964542066,
    3964542067,
    3964542068,
    3964542065
  ],
  "tags": {
    "amenity": "hospital",
    "emergency": "yes",
    "name": "IPS",
    "operator": "Cuposalud"
  }
},
{
  "type": "way",
  "id": 393262753,
  "center": {
    "lat": 11.5376653,
    "lon": -72.9078760
  },
  "nodes": [
    3964747545,
    3964747548,
    3964747537,
    3964747535,
    3964747539,
    3964747545
  ],
  "tags": {
    "amenity": "hospital"
  }
},
{
  "type": "way",
  "id": 394489925,
  "center": {
    "lat": 11.1533652,
    "lon": -72.6075268
  },
  "nodes": [
    3974930179,
    3974930180,
    3974930181,
    3974930182,
    3974930179
  ],
  "tags": {
    "amenity": "hospital",
    "emergency": "yes",
    "healthcare": "hospital",
    "healthcare:speciality": "emergency;surgery"
  }
},
{
  "type": "way",
  "id": 394489926,
  "center": {
    "lat": 11.1534861,
    "lon": -72.6071260
  },
  "nodes": [
    3974930183,
    3974930184,
    3974930185,
    3974930186,
    12863771100,
    12863771099,
    3974930183
  ],
  "tags": {
    "amenity": "clinic",
    "building": "yes",
    "healthcare": "clinic",
    "healthcare:speciality": "general;gastroenterology;internal;blood_check;dentistry"
  }
},
{
  "type": "way",
  "id": 395028029,
  "center": {
    "lat": 10.2583558,
    "lon": -74.8353397
  },
  "nodes": [
    3979135871,
    3979135867,
    3979135882,
    3979135889,
    3979135891,
    3979135890,
    3979135893,
    3979135883,
    3979135871
  ],
  "tags": {
    "amenity": "hospital",
    "building": "yes",
    "name": "ESE hospital local de Concordia",
    "payment:cash": "yes",
    "payment:coins": "yes",
    "payment:credit_cards": "no",
    "payment:cryptocurrencies": "no",
    "payment:debit_cards": "no",
    "payment:electronic_purses": "no",
    "payment:notes": "yes"
  }
},
{
  "type": "way",
  "id": 398196277,
  "center": {
    "lat": 11.5430168,
    "lon": -72.9096372
  },
  "nodes": [
    3938072396,
    3938072399,
    3938072406,
    3938072404,
    3938072398,
    3938072400,
    3938072391,
    3938072381,
    3938072379,
    3938072374,
    3938072373,
    3938072390,
    3938072388,
    3938072396
  ],
  "tags": {
    "addr:city": "Riohacha, La Guajira",
    "addr:housenumber": "carrera 8-264",
    "addr:street": "Calle 15#82",
    "amenity": "clinic",
    "building": "yes",
    "healthcare": "clinic",
    "name": "IPS Anashiwaya",
    "opening_hours": "24/7",
    "phone": "+57 7282669"
  }
},
{
  "type": "way",
  "id": 399726661,
  "center": {
    "lat": 11.5466663,
    "lon": -72.9157489
  },
  "nodes": [
    4024232949,
    4024232950,
    4024232935,
    4024232936,
    4024232930,
    4024232929,
    4024232949
  ],
  "tags": {
    "addr:city": "Riohacha",
    "addr:housenumber": "15-55",
    "addr:street": "Calle 11B",
    "amenity": "clinic",
    "building:material": "concrete",
    "healthcare": "clinic",
    "name:es": "Clinica Riohacha",
    "opening_hours": "24/7",
    "phone": "+57(5) 7271873"
  }
},
{
  "type": "way",
  "id": 401513788,
  "center": {
    "lat": 10.8853254,
    "lon": -72.8559004
  },
  "nodes": [
    4039337318,
    4039337319,
    4039337320,
    4039337321,
    4039337318
  ],
  "tags": {
    "addr:city": "FONSECA",
    "addr:housenumber": "15-10",
    "addr:street": "Carrera 21",
    "amenity": "hospital",
    "name": "HOSPITAL SAN AGUSTIN DE FONSECA"
  }
},
{
  "type": "way",
  "id": 409804333,
  "center": {
    "lat": 10.9952289,
    "lon": -74.8028896
  },
  "nodes": [
    4116826387,
    4116826388,
    4116826689,
    4116826690,
    8018974019,
    4116826692,
    9770575334,
    9770575333,
    4116826387
  ],
  "tags": {
    "addr:city": "Barranquilla, Atlántico",
    "addr:housenumber": "+57 5 3564455",
    "addr:postcode": "+57",
    "addr:street": "Calle 70 No. 48 - 35",
    "amenity": "hospital",
    "emergency": "yes",
    "healthcare": "hospital",
    "name": "Clínica General del Norte"
  }
},
{
  "type": "way",
  "id": 412180485,
  "center": {
    "lat": 10.6425465,
    "lon": -71.6160855
  },
  "nodes": [
    4137015136,
    4137015137,
    4137015138,
    4137015139,
    4137015140,
    4137015141,
    4137015142,
    4137015143,
    4137015144,
    4137015145,
    4137015146,
    4137015147,
    4137015148,
    4137015149,
    4137015150,
    4137015151,
    4137015152,
    4137015153,
    4137015136
  ],
  "tags": {
    "addr:city": "Maracaibo",
    "amenity": "hospital",
    "building": "hospital",
    "emergency": "yes",
    "healthcare": "hospital",
    "name": "Hospital Chiquinquirá"
  }
},
{
  "type": "way",
  "id": 412283949,
  "center": {
    "lat": 10.9927815,
    "lon": -74.8120671
  },
  "nodes": [
    4137553442,
    4137553443,
    4137553444,
    10817126712,
    4137553445,
    4137553446,
    4137536454,
    4137536453,
    7368696958,
    7368696957,
    4137553442
  ],
  "tags": {
    "addr:street": "Carrera 42F",
    "amenity": "hospital",
    "barrier": "wall",
    "building:min_level": "10",
    "healthcare": "hospital",
    "name": "Hospital Metropolitano",
    "source": "Kaart Ground Survey 2018"
  }
},
{
  "type": "way",
  "id": 412550194,
  "center": {
    "lat": 10.2071411,
    "lon": -71.3222093
  },
  "nodes": [
    4139519414,
    11301791863,
    4139519415,
    4139519416,
    4139519417,
    4139519418,
    4139519419,
    4139519420,
    4139519421,
    4139519414
  ],
  "tags": {
    "amenity": "clinic",
    "name": "Clínica Los Ángeles"
  }
},
{
  "type": "way",
  "id": 413023100,
  "center": {
    "lat": 11.0301520,
    "lon": -74.8698948
  },
  "nodes": [
    4143514386,
    4143514387,
    4143514388,
    4143514391,
    8917248352,
    8917248351,
    8917248350,
    8917248349,
    4143514386
  ],
  "tags": {
    "addr:city": "Barranquilla",
    "addr:housenumber": "17-56",
    "addr:street": "Carrera 17D",
    "amenity": "hospital",
    "barrier": "wall",
    "emergency": "yes",
    "healthcare": "hospital",
    "name": "PASO - LA PLAYA",
    "operator": "Mi Red IPS",
    "operator:type": "public"
  }
},
{
  "type": "way",
  "id": 419756998,
  "center": {
    "lat": 11.5494190,
    "lon": -72.9106901
  },
  "nodes": [
    4197598558,
    5960354415,
    4197598560,
    4197598561,
    4197598558
  ],
  "tags": {
    "addr:housenumber": "10-7",
    "addr:street": "Calle 7 (Cll. Ancha)",
    "amenity": "clinic",
    "building": "yes",
    "healthcare": "clinic",
    "name": "Clinica Dental Sonría RIOHACHA",
    "phone": "+57 (5) 7280715"
  }
},
{
  "type": "way",
  "id": 431995293,
  "center": {
    "lat": 11.5118392,
    "lon": -72.8701583
  },
  "nodes": [
    4311952596,
    4311952597,
    4311952599,
    4311952598,
    4311952596
  ],
  "tags": {
    "amenity": "hospital",
    "name": "Centro de Salud"
  }
},
{
  "type": "way",
  "id": 435829140,
  "center": {
    "lat": 10.4074840,
    "lon": -75.5140538
  },
  "nodes": [
    4337230654,
    4337230655,
    4337230656,
    4337230657,
    4337230658,
    4337230659,
    4337230654
  ],
  "tags": {
    "amenity": "clinic",
    "building": "yes",
    "healthcare": "clinic",
    "healthcare:speciality": "psychiatry",
    "name": "Clínica La Misericordia",
    "phone": "+5756722913"
  }
},
{
  "type": "way",
  "id": 441637295,
  "center": {
    "lat": 11.7753121,
    "lon": -72.4474469
  },
  "nodes": [
    4393675030,
    4393675032,
    4393675029,
    4393675028,
    4393675030
  ],
  "tags": {
    "amenity": "clinic",
    "building": "yes",
    "healthcare": "clinic",
    "name": "Anashiwaya EPS"
  }
},
{
  "type": "way",
  "id": 441651350,
  "center": {
    "lat": 11.7752298,
    "lon": -72.4444844
  },
  "nodes": [
    4393757709,
    4393757710,
    4393757708,
    4393757706,
    4393757709
  ],
  "tags": {
    "amenity": "clinic",
    "building": "yes",
    "name": "clinica dental"
  }
},
{
  "type": "way",
  "id": 444335842,
  "center": {
    "lat": 10.6761454,
    "lon": -71.6241100
  },
  "nodes": [
    4418203194,
    4418203195,
    4418203196,
    4418203197,
    4418203198,
    4418203199,
    4418203194
  ],
  "tags": {
    "amenity": "clinic",
    "building": "yes",
    "healthcare": "clinic",
    "name": "IPAS-ME"
  }
},
{
  "type": "way",
  "id": 444459990,
  "center": {
    "lat": 10.6144367,
    "lon": -71.6481335
  },
  "nodes": [
    4419397526,
    4419397527,
    4419397528,
    4419397529,
    4419397526
  ],
  "tags": {
    "amenity": "clinic",
    "building": "yes"
  }
},
{
  "type": "way",
  "id": 444459991,
  "center": {
    "lat": 10.6141710,
    "lon": -71.6480103
  },
  "nodes": [
    4419397530,
    4419397531,
    4419397532,
    4419397533,
    4419397530
  ],
  "tags": {
    "amenity": "clinic",
    "building": "yes"
  }
},
{
  "type": "way",
  "id": 444459992,
  "center": {
    "lat": 10.6143020,
    "lon": -71.6481153
  },
  "nodes": [
    4419397534,
    4419397535,
    4419397536,
    4419397537,
    4419397538,
    4419397534
  ],
  "tags": {
    "amenity": "hospital",
    "name": "Módulo Lago Azul"
  }
},
{
  "type": "way",
  "id": 444620107,
  "center": {
    "lat": 10.6752651,
    "lon": -71.6317549
  },
  "nodes": [
    4420814325,
    4420814326,
    4420814327,
    4420814328,
    4420814329,
    4420814330,
    4420814331,
    4420814332,
    4420814325
  ],
  "tags": {
    "amenity": "clinic",
    "building": "yes",
    "healthcare": "clinic",
    "healthcare:speciality": "cardiology",
    "name": "Instituto cardiovascular de Maracaibo"
  }
},
{
  "type": "way",
  "id": 444620108,
  "center": {
    "lat": 10.6744642,
    "lon": -71.6290447
  },
  "nodes": [
    4420814333,
    4420814334,
    4420814335,
    4420814336,
    4420814337,
    4420814338,
    4420814339,
    4420814340,
    4420814341,
    4420814342,
    4420814333
  ],
  "tags": {
    "amenity": "clinic",
    "building": "yes",
    "healthcare": "clinic"
  }
},
{
  "type": "way",
  "id": 444620110,
  "center": {
    "lat": 10.6729666,
    "lon": -71.6284413
  },
  "nodes": [
    4420814359,
    4420814360,
    4420814361,
    4420814362,
    4420814363,
    4420814364,
    4420814365,
    4420814366,
    4420814367,
    4420814368,
    4420814369,
    4420814370,
    4420814371,
    4420814372,
    4420814373,
    4420814374,
    4420814375,
    4420814376,
    4420814377,
    4420814378,
    4420814359
  ],
  "tags": {
    "amenity": "hospital",
    "healthcare": "hospital",
    "name": "Hospital Universitario de Maracaibo",
    "operator:type": "university",
    "wikidata": "Q16576159",
    "wikipedia": "es:Hospital Universitario de Maracaibo"
  }
},
{
  "type": "way",
  "id": 445049412,
  "center": {
    "lat": 10.6977134,
    "lon": -71.6462241
  },
  "nodes": [
    1404089635,
    4425015506,
    4425015507,
    4425015508,
    4425015509,
    4425015510,
    4425015511,
    4425015512,
    4425015513,
    4425015514,
    4425015515,
    4425015516,
    4425015517,
    4425015518,
    1404089635
  ],
  "tags": {
    "alt_name": "Hospital de especialidades pediátricas",
    "amenity": "hospital",
    "emergency": "yes",
    "healthcare": "hospital",
    "healthcare:speciality": "paediatrics",
    "name": "Hospital de Niños"
  }
},
{
  "type": "way",
  "id": 445087021,
  "center": {
    "lat": 10.6858703,
    "lon": -71.6264205
  },
  "nodes": [
    4425409685,
    4425409686,
    4425409687,
    4425409688,
    4425409689,
    4425409690,
    4425409691,
    4425409692,
    4425409693,
    4425409694,
    4425409695,
    4425409696,
    4425409697,
    4425409698,
    4425409685
  ],
  "tags": {
    "amenity": "clinic",
    "building": "yes",
    "name": "Hospital Clínico"
  }
},
{
  "type": "way",
  "id": 445087022,
  "center": {
    "lat": 10.6858734,
    "lon": -71.6264913
  },
  "nodes": [
    4425409699,
    4425409700,
    4425409701,
    4425409702,
    4425409703,
    4425409704,
    4425409699
  ],
  "tags": {
    "amenity": "hospital",
    "check_date": "2026-04-06",
    "name": "Hospital Clínico"
  }
},
{
  "type": "way",
  "id": 445126020,
  "center": {
    "lat": 11.0129108,
    "lon": -74.8364543
  },
  "nodes": [
    4425949362,
    4425949363,
    4425949364,
    4425949365,
    4425949362
  ],
  "tags": {
    "amenity": "clinic",
    "building": "yes",
    "healthcare": "clinic",
    "healthcare:speciality": "cardiology;rehabilitation",
    "name": "Instituto de rehabilitación cardiopulmonar del Caribe",
    "operator": "Health Medical Center"
  }
},
{
  "type": "way",
  "id": 445127420,
  "center": {
    "lat": 10.7178290,
    "lon": -71.6215865
  },
  "nodes": [
    4425973390,
    4425973391,
    4425973392,
    4425973393,
    4425973390
  ],
  "tags": {
    "amenity": "hospital",
    "healthcare": "hospital",
    "name": "Hospital Adolfo Pons"
  }
},
{
  "type": "way",
  "id": 445127456,
  "center": {
    "lat": 10.6953545,
    "lon": -71.6249639
  },
  "nodes": [
    4425973511,
    4425973512,
    4425973513,
    4425973514,
    4425973511
  ],
  "tags": {
    "amenity": "clinic",
    "building": "yes",
    "healthcare": "clinic",
    "name": "Clínica D'Empaire"
  }
},
{
  "type": "way",
  "id": 445715748,
  "center": {
    "lat": 10.6108287,
    "lon": -71.6375230
  },
  "nodes": [
    4430959495,
    4430959496,
    4430959497,
    4430959498,
    4430959499,
    4430959495
  ],
  "tags": {
    "amenity": "hospital",
    "name": "Módulo El Pinar"
  }
},
{
  "type": "way",
  "id": 446374871,
  "center": {
    "lat": 10.6839245,
    "lon": -71.6161761
  },
  "nodes": [
    4436580431,
    4436580432,
    4436580433,
    4436580434,
    4436580435,
    4436580436,
    4436580437,
    4436580438,
    4436580439,
    4436580440,
    4436580441,
    4436580442,
    4436580443,
    4436580444,
    4436580445,
    4436580446,
    4436580431
  ],
  "tags": {
    "amenity": "clinic",
    "building": "yes",
    "layer": "-1",
    "name": "Clínica Paraíso"
  }
},
{
  "type": "way",
  "id": 446374872,
  "center": {
    "lat": 10.6846354,
    "lon": -71.6166189
  },
  "nodes": [
    4436580447,
    4436580448,
    4436580449,
    4436580450,
    4436580451,
    4436580452,
    4436580453,
    4436580454,
    4436580455,
    4436580447
  ],
  "tags": {
    "amenity": "clinic",
    "building": "yes",
    "name": "Torre Promotora Paraíso"
  }
},
{
  "type": "way",
  "id": 446374875,
  "center": {
    "lat": 10.6844301,
    "lon": -71.6165055
  },
  "nodes": [
    4436580456,
    4436580457,
    4436580458,
    4436580459,
    4436580460,
    4436580461,
    4436580462,
    4436580463,
    4436580456
  ],
  "tags": {
    "amenity": "clinic",
    "healthcare": "clinic",
    "name": "Centro Médico Paraíso"
  }
},
{
  "type": "way",
  "id": 446374882,
  "center": {
    "lat": 10.6720071,
    "lon": -71.6106460
  },
  "nodes": [
    4436580468,
    4436580469,
    4436580470,
    4436580471,
    4436580472,
    4436580473,
    4436580468
  ],
  "tags": {
    "amenity": "clinic",
    "building": "yes",
    "name": "Policlínica Maracaibo"
  }
},
{
  "type": "way",
  "id": 448162728,
  "center": {
    "lat": 10.6713470,
    "lon": -71.6329717
  },
  "nodes": [
    4451972676,
    4451972677,
    4451972678,
    4451972679,
    4451972680,
    4451972681,
    4451972682,
    4451972683,
    4451972684,
    4451972685,
    4451972686,
    4451972687,
    4451972688,
    4451972789,
    4451972790,
    4451972791,
    4451972792,
    4451972793,
    4451972794,
    4451972795,
    4451972796,
    4451972797,
    4451972798,
    4451972799,
    4451972800,
    4451972801,
    4451972802,
    4451972803,
    4451972676
  ],
  "tags": {
    "amenity": "hospital",
    "building": "hospital",
    "healthcare": "hospital",
    "name": "Maternidad Castillo Plaza"
  }
},
{
  "type": "way",
  "id": 448345452,
  "center": {
    "lat": 10.6634481,
    "lon": -71.6177091
  },
  "nodes": [
    4453665121,
    4453665122,
    4453665123,
    4453665124,
    4453665125,
    4453665126,
    5020744163,
    4453665127,
    4453665128,
    4453665129,
    4453665121
  ],
  "tags": {
    "amenity": "clinic",
    "building": "yes",
    "healthcare": "clinic",
    "name": "Clínica D'Empaire"
  }
},
{
  "type": "way",
  "id": 448349453,
  "center": {
    "lat": 10.6242670,
    "lon": -71.6585419
  },
  "nodes": [
    4453697314,
    4453697315,
    4453697316,
    4453697317,
    4453697318,
    4453697314
  ],
  "tags": {
    "amenity": "clinic",
    "building": "yes",
    "name": "Clínica El Varillal"
  }
},
{
  "type": "way",
  "id": 448839779,
  "center": {
    "lat": 10.6317810,
    "lon": -71.6360911
  },
  "nodes": [
    4458148329,
    4458148330,
    4458148331,
    4458148332,
    4458148333,
    4458148329
  ],
  "tags": {
    "amenity": "clinic",
    "building": "yes",
    "healthcare": "clinic",
    "name": "Clínica Zulia"
  }
},
{
  "type": "way",
  "id": 455589647,
  "center": {
    "lat": 10.9526485,
    "lon": -74.7873746
  },
  "nodes": [
    4519798629,
    4519798630,
    4519798631,
    4519798632,
    4519798633,
    6383820251,
    12688121088,
    12688121089,
    12688121087,
    6383820249,
    6383820248,
    6383820247,
    6383820246,
    12677446867,
    12677446866,
    12677446865,
    6383820244,
    12677446868,
    12677446874,
    12677446840,
    12677446875,
    13468640215,
    12677446879,
    12677446839,
    4519798629
  ],
  "tags": {
    "addr:city": "Barranquilla",
    "addr:housenumber": "#14 - 20",
    "addr:street": "Calle 31",
    "amenity": "hospital",
    "barrier": "wall",
    "emergency": "yes",
    "healthcare": "hospital",
    "name": "Fundación Clínica Campbell",
    "phone": "+57 3174009929"
  }
},
{
  "type": "way",
  "id": 462964499,
  "center": {
    "lat": 10.4201653,
    "lon": -75.5384641
  },
  "nodes": [
    4582879021,
    4582879018,
    4582879016,
    4582879017,
    11108835501,
    4582879021
  ],
  "tags": {
    "amenity": "clinic",
    "building": "yes",
    "building:levels": "2",
    "healthcare": "clinic",
    "name": "Viva 1A EPS"
  }
},
{
  "type": "way",
  "id": 483853886,
  "center": {
    "lat": 11.0107645,
    "lon": -74.8286516
  },
  "nodes": [
    4766008642,
    4766008633,
    4766008640,
    4766008643,
    4766008642
  ],
  "tags": {
    "amenity": "clinic",
    "building": "yes",
    "check_date": "2026-02-09",
    "healthcare": "clinic",
    "healthcare:speciality": "allergies",
    "name": "Clinialergias"
  }
},
{
  "type": "way",
  "id": 494724533,
  "center": {
    "lat": 10.4560479,
    "lon": -75.5055689
  },
  "nodes": [
    5394827629,
    5394827631,
    5394827630,
    5394827628,
    5394827629
  ],
  "tags": {
    "amenity": "clinic",
    "building": "yes"
  }
},
{
  "type": "way",
  "id": 496896074,
  "center": {
    "lat": 10.6470859,
    "lon": -71.6743181
  },
  "nodes": [
    4885467064,
    4885467065,
    4885467066,
    4885467067,
    4885467068,
    4885467069,
    4885467070,
    4885467071,
    4885467072,
    4885467073,
    4885467074,
    4885467075,
    4885467076,
    4885467077,
    4885467078,
    4885467079,
    4885467080,
    4885467081,
    4885467082,
    4885467083,
    4885467084,
    4885467085,
    4885467086,
    4885467087,
    4885467088,
    4885467089,
    4885467090,
    4885467091,
    4885467092,
    4885467093,
    4885467094,
    4885467095,
    4885467096,
    4885467097,
    4885467064
  ],
  "tags": {
    "amenity": "hospital",
    "building": "hospital",
    "healthcare": "hospital",
    "name": "Hospital Materno Infantil de Cuatricentenario"
  }
},
{
  "type": "way",
  "id": 502723185,
  "center": {
    "lat": 10.5977455,
    "lon": -71.6489808
  },
  "nodes": [
    4931071864,
    4931071865,
    4931071866,
    4931071867,
    4931071864
  ],
  "tags": {
    "amenity": "clinic",
    "building": "yes",
    "name": "Clínica Sagrada Familia"
  }
},
{
  "type": "way",
  "id": 502767661,
  "center": {
    "lat": 10.6731483,
    "lon": -71.6215386
  },
  "nodes": [
    4931467479,
    4931467480,
    4931467481,
    4931467482,
    4931467479
  ],
  "tags": {
    "amenity": "clinic",
    "building": "yes",
    "healthcare": "clinic",
    "name": "IZOT"
  }
},
{
  "type": "way",
  "id": 503144461,
  "center": {
    "lat": 10.9361630,
    "lon": -74.8281501
  },
  "nodes": [
    4934810256,
    7109474532,
    7109474531,
    7109474530,
    7109474529,
    4934810257,
    4934810258,
    4934810254,
    4934810253,
    4934810252,
    4934810259,
    4934810260,
    4934810261,
    7109474533,
    7109474534,
    7109474535,
    7109474536,
    4934810262,
    4934810263,
    7109474537,
    7109474538,
    4934810264,
    4934810256
  ],
  "tags": {
    "addr:city": "Barranquilla",
    "addr:housenumber": "1G",
    "addr:street": "Calle 96",
    "amenity": "hospital",
    "barrier": "wall",
    "healthcare": "hospital",
    "name": "PASO UNIVERSAL",
    "operator": "8 SUR - 64",
    "operator:type": "public"
  }
},
{
  "type": "way",
  "id": 506470731,
  "center": {
    "lat": 10.7112057,
    "lon": -71.6231566
  },
  "nodes": [
    4415091151,
    4961963954,
    4961963955,
    4961963956,
    4961963957,
    4415091151
  ],
  "tags": {
    "amenity": "hospital",
    "name": "Hospital Militar"
  }
},
{
  "type": "way",
  "id": 506471320,
  "center": {
    "lat": 10.7238712,
    "lon": -71.6188478
  },
  "nodes": [
    3411362910,
    4961972178,
    4961972179,
    4961972180,
    4961972181,
    4961972182,
    4961972183,
    4961972184,
    4961972185,
    4961972186,
    3411362910
  ],
  "tags": {
    "amenity": "hospital",
    "name": "Hospital de Policías"
  }
},
{
  "type": "way",
  "id": 507358469,
  "center": {
    "lat": 10.4135628,
    "lon": -71.4668219
  },
  "nodes": [
    4968779758,
    4968779759,
    4968779760,
    4968779761,
    4968779762,
    4968779758
  ],
  "tags": {
    "amenity": "hospital"
  }
},
{
  "type": "way",
  "id": 509025274,
  "center": {
    "lat": 10.6641310,
    "lon": -71.6579699
  },
  "nodes": [
    4983146474,
    4983146475,
    4983146476,
    4983146477,
    4983146478,
    4983146479,
    4983146474
  ],
  "tags": {
    "amenity": "clinic",
    "building": "yes",
    "name": "Clínica Sagrada Familia"
  }
},
{
  "type": "way",
  "id": 509033756,
  "center": {
    "lat": 10.6567324,
    "lon": -71.6085331
  },
  "nodes": [
    4983226158,
    4983226159,
    4983226160,
    4983226161,
    4983226162,
    4983226173,
    4983226163,
    4983226164,
    4983226165,
    4983226166,
    4983226167,
    4983226168,
    4983226169,
    4983226158
  ],
  "tags": {
    "amenity": "clinic",
    "building": "yes",
    "name": "Clínica Falcón"
  }
},
{
  "type": "way",
  "id": 509267745,
  "center": {
    "lat": 10.6775854,
    "lon": -71.5969325
  },
  "nodes": [
    4985180190,
    4985180191,
    4985180192,
    4985180193,
    4985180194,
    4985180195,
    4985180196,
    4985180197,
    4985180198,
    4985180199,
    4985180200,
    4985180201,
    11135607323,
    4985180202,
    4985180190
  ],
  "tags": {
    "amenity": "hospital",
    "name": "Hospital Coromoto"
  }
},
{
  "type": "way",
  "id": 515112834,
  "center": {
    "lat": 9.3274392,
    "lon": -75.2968207
  },
  "nodes": [
    5031428489,
    5031428490,
    5031428491,
    5031428492,
    5031428489
  ],
  "tags": {
    "amenity": "clinic",
    "building": "yes",
    "healthcare": "clinic",
    "name": "Puesto de Salud Asovipoba"
  }
},
{
  "type": "way",
  "id": 515324208,
  "center": {
    "lat": 9.3361043,
    "lon": -75.3067379
  },
  "nodes": [
    5032912503,
    5032912504,
    5032912505,
    5032912506,
    5032912507,
    5032912508,
    5032912509,
    5032912510,
    5032912511,
    5032912503
  ],
  "tags": {
    "amenity": "clinic",
    "building": "yes",
    "healthcare": "clinic",
    "name": "Centro de Salud San Blas"
  }
},
{
  "type": "way",
  "id": 536731301,
  "center": {
    "lat": 11.0037329,
    "lon": -74.8227756
  },
  "nodes": [
    5198709886,
    5198709883,
    5198709884,
    5198709885,
    5198709886
  ],
  "tags": {
    "addr:city": "Barranquilla",
    "addr:housenumber": "47-47",
    "addr:street": "Calle 87",
    "amenity": "clinic",
    "building": "yes",
    "healthcare": "clinic",
    "name": "Smadia Clinic",
    "website": "https://www.smadiaclinic.com/"
  }
},
{
  "type": "way",
  "id": 548913636,
  "center": {
    "lat": 10.4180311,
    "lon": -75.5331338
  },
  "nodes": [
    5302601734,
    5394071715,
    5394071712,
    5394071713,
    5394071714,
    5302601735,
    5302601736,
    5302601737,
    5302601738,
    5394071711,
    5302601734
  ],
  "tags": {
    "addr:street": "Calle 29D",
    "amenity": "hospital",
    "building": "yes",
    "healthcare": "hospital",
    "name": "Clínica La Ermita de Cartagena",
    "source": "Kaart Ground Survey 2018"
  }
},